airportID,displayAirportName,lat,lon,displayAirportCityName
10001,Afognak Lake Airport,58.10944444,-152.9066667,"Afognak Lake, AK"
10003,Bear Creek Mining Strip,65.54805556,-161.0716667,"Granite Mountain, AK"
10004,Lik Mining Camp,68.08333333,-163.1666667,"Lik, AK"
10005,Little Squaw Airport,67.57,-148.1838889,"Little Squaw, AK"
10006,Kizhuyak Bay,57.74527778,-152.8827778,"Kizhuyak, AK"
10007,Klawock Seaplane Base,55.55472222,-133.1016667,"Klawock, AK"
10008,Elizabeth Island Airport,59.15694444,-151.8291667,"Elizabeth Island, AK"
10009,Augustin Island,59.36277778,-153.4305556,"Homer, AK"
10010,Columbia County,42.29138889,-73.71027778,"Hudson, NY"
10011,Grand Canyon West,35.98611111,-113.8169444,"Peach Springs, AZ"
10012,Blairstown Airport,40.97111111,-74.9975,"Blairstown, NJ"
10013,Crosbyton Municipal,33.62388889,-101.2408333,"Crosbyton, TX"
10014,Blair Lake,64.36361111,-147.3638889,"Fairbanks/Ft. Wainwright, AK"
10015,Deadmans Bay Airport,57.06666667,-153.9377778,"Deadmans Bay, AK"
10016,Hallo Bay Airport,58.4575,-154.0233333,"Hallo Bay, AK"
10017,Red Lake Airport,57.27722222,-154.3422222,"Red Lake, AK"
10018,Shell Lake Airport,61.96388889,-151.5558333,"Shell Lake, AK"
10019,Navigator Airstrip,65.65555556,-165.3563889,"Kougarok, AK"
10020,Roland Norton Memorial,66.76611111,-160.1527778,"Selawik, AK"
10021,Pillar Bay Airport,56.59805556,-134.2427778,"Pillar Bay, AK"
10022,Johnstone Point Airport,60.48166667,-146.5841667,"Johnstone Point, AK"
10023,Tikchik Lodge Airport,59.95555556,-158.4805556,"Tikchik Lodge, AK"
10024,Bell Creek Airport,60.78388889,-159.5402778,"Bell Creek, AK"
10025,Cinnabar Airport,60.78527778,-158.8644444,"Cinnabar, AK"
10026,Mountaintop Mine Airport,61.39027778,-157.9955556,"Mountaintop Mine, AK"
10027,Whitebear Airport,61.18888889,-159.8583333,"Whitebear, AK"
10029,Arley Lake Airport,70.74694444,-155.3608333,"Arley Lake, AK"
10030,Port Vita Airport,58.06555556,-153.0725,"Port Vita, AK"
10031,Kantishna Airport,63.54111111,-150.995,"Kantishna, AK"
10033,Alpine Airstrip,70.34416667,-150.9447222,"Alpine, AK"
10034,Serpentine Airport,65.85138889,-164.7027778,"Serpentine, AK"
10035,Driftwood Bay Airport,53.97277778,-166.8569444,"Driftwood Bay, AK"
10036,Bradley Lake Airport,59.77611111,-151.9636111,"Bradley Lake, AK"
10037,Chilkat Lake Airport,59.33166667,-135.8966667,"Chilkat Lake, AK"
10038,Nugget Creek Airport,59.28833333,-136.1738889,"Nugget Creek, AK"
10039,Ivotuk Airstrip,68.48333333,-155.7333333,"Ivotuk, AK"
10040,Pogo Mines Airport,64.44,-144.9363889,"Pogo Mines, AK"
10041,Ayakulik River Airport,57.25388889,-154.4222222,"Ayakulik River, AK"
10042,Kiluda Bay Airport,57.32305556,-153.1494444,"Kiluda Bay, AK"
10043,Terror Lake Airport,57.96388889,-153.0583333,"Terror Lake, AK"
10044,Selief Bay Airport,58.98277778,-153.1833333,"Selief Bay, AK"
10047,Laura Lake Airport,58.36194444,-152.3122222,"Laura Lake, AK"
10049,Deep Bay Airport,55.56027778,-131.6555556,"Deep Bay, AK"
10050,Kako Airport,61.89888889,-161.4397222,"Kako, AK"
10051,Molly Creek Airport,64.09722222,-143.2666667,"Molly Creek, AK"
10052,Ptarmigan Lake Airport,61.86611111,-141.1597222,"Ptarmigan Lake, AK"
10053,Cape Simpson Airport,71.05694444,-154.7283333,"Cape Simpson, AK"
10055,Teshepkuk Lake Airport,70.35833333,-153.1966667,"Teshepkuk Lake, AK"
10056,Trident Basin Seaplane Base,57.78083333,-152.3911111,"Kodiak Island, AK"
10058,Lake Florence Airport,57.81666667,-134.5833333,"Lake Florence, AK"
10059,Lake Hasselborg Airport,57.7,-134.2666667,"Lake Hasselborg, AK"
10060,Distin Lake Airport,57.61666667,-134.3666667,"Distin Lake, AK"
10061,Port Hobron Airport,57.15,-153.15,"Port Hobron, AK"
10062,Mooseville Airstrip Airport,70.28444444,-152.2119444,"Mooseville Airstrip, AK"
10063,Big Bay Airport,58.5625,-152.5961111,"Big Bay, AK"
10064,Wien Lake Airport,64.35277778,-151.275,"Wien Lake, AK"
10065,Silver Salmon Creek Airport,59.96388889,-152.6822222,"Silver Salmon Creek, AK"
10066,Blear Lake Airport,64.33333333,-147.5,"Blear Lake, AK"
10067,Cannery Bay Airport,53.68333333,-166.75,"Cannery Bay, AK"
10069,Johnsons Landing,56.03666667,-160.2661111,"Bear Lake, AK"
10070,International Seafoods Airport,58.26666667,-157.5333333,"International Seafoods, AK"
10071,Cosna River Airport,64.5,-151.6666667,"Cosna River, AK"
10072,Ivatuk Airport,68.48777778,-155.7575,"Ivatuk, AK"
10074,Cape Sarichef Airport,54.5825,-164.9144444,"Cape Sarichef, AK"
10075,Taylor Mountain,60.86777778,-157.3919444,"Taylor Mountain Mine, AK"
10076,Coal Creek,65.31166667,-143.1341667,"Yukon Charley Rivvers, AK"
10078,Karluk Portage Airport,57.53833333,-154.1644444,"Karluk Portage, AK"
10079,Hope Airport,60.90722222,-149.6227778,"Hope, AK"
10080,Viekoda Bay Airport,57.84944444,-153.1152778,"Viekoda Bay, AK"
10082,Cathedral Strip,55.74,-162.1252778,"Cold Bay, AK"
10083,Village Islands Airport,57.77416667,-153.5447222,"Village Islands, AK"
10084,Bear Cove Farm,59.73833333,-151.03,"Homer, AK"
10085,Chinitna Bay Airport,59.83333333,-152.5847222,"Chinitna Bay, AK"
10086,McKinley National Park,63.7325,-148.9105556,"McKinley Park, AK"
10087,Dog Fish Bay,59.24111111,-151.8772222,"Nanwalek, AK"
10088,Malina Bay Airport,58.17194444,-152.8941667,"Malina Bay, AK"
10089,Red Fox Bay Airport,58.46444444,-152.5930556,"Red Fox Bay, AK"
10090,Shearwater Airport,57.34333333,-152.8972222,"Shearwater, AK"
10091,Lake,71.03,-154.4436111,"Cape Simpson, AK"
10092,Cape Simpson No. 1,71.50166667,-154.0338889,"Cape Simpson, AK"
10093,Cape Simpson No. 7,70.57388889,-155.3213889,"Cape Simpson, AK"
10094,Cape Simpson #1,70.66277778,-154.8366667,"Aglaq, AK"
10095,Nikiski Private Airstrip,60.69027778,-151.2888889,"Nikiski, AK"
10096,Petrof Point Airport,59.37638889,-150.765,"Petrof Point, AK"
10097,Denali West Lodge Private,63.75555556,-147.93,"Denali, AK"
10098,Big River Airport,61.85944444,-154.2766667,"Big River, AK"
10100,Carry Inlet Airport,58.58305556,-152.4458333,"Carry Inlet, AK"
10102,Montague Island Airport,59.925,-147.5166667,"Montague Island, AK"
10103,Shannon Pond Airport,59.03916667,-158.4638889,"Shannon Pond, AK"
10104,Omalik Lagoon Airport,69.15555556,-163.4972222,"Omalik Lagoon, AK"
10105,Omolik Lagoon Airport,69.14805556,-163.5102778,"Omolik Lagoon, AK"
10106,Bradley Lake Project Airport,59.79166667,-151.2666667,"Bradley Lake Project, AK"
10107,Ice Strip,70.57416667,-155.3180556,"Barrow, AK"
10108,Ice Strip,70.31194444,-153.2491667,"Barrow, AK"
10109,Ice Strip,70.98083333,-157.095,"Barrow, AK"
10110,Akulik Air Strip,68.98555556,-163.4797222,"Akulik, AK"
10111,Deadfall Air Strip,69.17083333,-163.2563889,"Deadfall, AK"
10112,Eagle Creek Airport,68.67666667,-162.6469444,"Eagle Creek, AK"
10113,Ice Kong,59.95277778,-162.6169444,"Bethel, AK"
10116,Glacier Split,59.63333333,-151.2083333,"Kachemak Bay, AK"
10117,Selby Lake Airport,66.95583333,-155.615,"Selby Lake, AK"
10122,Apalachicola Regional Cleve Randolph Field,29.7275,-85.0275,"Apalachicola, FL"
10135,Lehigh Valley International,40.65222222,-75.44055556,"Allentown/Bethlehem/Easton, PA"
10136,Abilene Regional,32.41138889,-99.68194444,"Abilene, TX"
10139,Ambler River,67.0875,-157.8458333,"Ambler, AK"
10140,Albuquerque International Sunport,35.03888889,-106.6083333,"Albuquerque, NM"
10141,Aberdeen Regional,45.44833333,-98.4225,"Aberdeen, SD"
10146,Southwest Georgia Regional,31.53555556,-84.19444444,"Albany, GA"
10149,Antrim County,44.98861111,-85.19833333,"Bellaire, MI"
10154,Nantucket Memorial,41.25305556,-70.06,"Nantucket, MA"
10155,Waco Regional,31.61222222,-97.23027778,"Waco, TX"
10157,Arcata,40.97777778,-124.1083333,"Arcata/Eureka, CA"
10158,Atlantic City International,39.4575,-74.57722222,"Atlantic City, NJ"
10165,Adak,51.88361111,-176.6425,"Adak Island, AK"
10167,Ardmore Municipal,34.30416667,-97.02055556,"Ardmore, OK"
10170,Kodiak Airport,57.75,-152.4938889,"Kodiak, AK"
10171,Addison,32.96861111,-96.83638889,"Dallas, TX"
10172,Joint Base Andrews,38.81083333,-76.86694444,"Camp Springs, MD"
10176,Aleneva Airport,58.03333333,-152.9,"Aleneva, AK"
10184,Allakaket Airport,66.55194444,-152.6222222,"Allakaket, AK"
10185,Alexandria International,31.3275,-92.54861111,"Alexandria, LA"
10189,USAF Academy Airfield,38.97416667,-104.8177778,"Colorado Springs, CO"
10190,Nebraska City Municipal,40.60666667,-95.86666667,"Nebraska, NE"
10191,Afton Municipal,42.70888889,-110.9422222,"Afton, WY"
10192,Anson County,35.02055556,-80.07722222,"Wadesboro, NC"
10194,Fort Worth Alliance,32.9875,-97.31888889,"Dallas/Fort Worth, TX"
10198,Allegheny County,40.35444444,-79.92916667,"Pittsburgh, PA"
10204,Angoon Seaplane Base,57.50388889,-134.5833333,"Angoon, AK"
10208,Augusta Regional at Bush Field,33.37,-81.96444444,"Augusta, GA"
10215,Ardmore Downtown Executive,34.14694444,-97.12277778,"Ardmore, OK"
10216,Athens/Ben Epps,33.94861111,-83.32583333,"Athens, GA"
10219,Amchitka,51.37861111,179.2586111,"Amchitka Island, AK"
10221,Alliance Municipal,42.05333333,-102.8036111,"Alliance, NE"
10222,Anita Bay Airport,56.19,-132.4458333,"Anita Bay, AK"
10223,Anderson Municipal-Darlington Field,40.10861111,-85.61305556,"Anderson, IN"
10224,Aiken Municipal,33.64944444,-81.685,"Aiken, SC"
10225,Wainwright Airport,70.63805556,-159.9947222,"Wainwright, AK"
10228,Lee C Fine Memorial,38.09611111,-92.54944444,"Lake of the Ozarks, MO"
10237,Atka Airport,52.22055556,-174.2061111,"Atka, AK"
10238,Akron Fulton International,41.0375,-81.46694444,"Akron, OH"
10241,Akiak Airport,60.90277778,-161.2305556,"Akiak, AK"
10243,Akhiok Airport,56.93861111,-154.1825,"Akhiok, AK"
10245,King Salmon Airport,58.67638889,-156.6486111,"King Salmon, AK"
10246,Colorado Plains Regional,40.17555556,-103.2219444,"Akron, CO"
10247,Anaktuvuk Pass Airport,68.13361111,-151.7433333,"Anaktuvuk Pass, AK"
10253,Albertville Regional-Thomas J Brumlik Field,34.22916667,-86.25583333,"Albertville, AL"
10254,Shelby County,33.17777778,-86.78333333,"Alabaster, AL"
10255,Huntsville Executive Airport Tom Sharp Jr,34.85944444,-86.5575,"Huntsville, AL"
10257,Albany International,42.74916667,-73.80194444,"Albany, NY"
10259,Alpine Casparis Municipal,30.38416667,-103.6836111,"Alpine, TX"
10263,Alice International,27.74083333,-98.02694444,"Alice, TX"
10266,Alamogordo White Sands Regional,32.84138889,-105.9888889,"Alamogordo, NM"
10267,St. Louis Regional,38.89,-90.04611111,"Alton, IL"
10268,Waterloo Regional,42.55694444,-92.40027778,"Waterloo, IA"
10272,San Luis Valley Regional/Bergman Field,37.435,-105.8677778,"Alamosa, CO"
10275,Walla Walla Regional,46.09527778,-118.2858333,"Walla Walla, WA"
10276,Thomas C. Russell Field,32.91472222,-85.96305556,"Alexander City, AL"
10278,Alitak Seaplane Base,56.89583333,-154.2458333,"Lazy Bay, AK"
10279,Rick Husband Amarillo International,35.21944444,-101.7058333,"Amarillo, TX"
10285,Animas Air Park,37.20305556,-107.8691667,"Durango, CO"
10288,Gratiot Community,43.32222222,-84.68805556,"Alma, MI"
10294,Ames Municipal,41.99194444,-93.62194444,"Ames, IA"
10297,Anaheim-Disneyland HP,33.81666667,-117.9333333,"Anaheim, CA"
10298,Anniston Regional,33.58805556,-85.85805556,"Anniston, AL"
10299,Ted Stevens Anchorage International,61.17416667,-149.9980556,"Anchorage, AK"
10300,Anderson Regional,34.49444444,-82.70944444,"Anderson, SC"
10304,Aniak Airport,61.58166667,-159.5430556,"Aniak, AK"
10307,Annette Island,55.04222222,-131.5708333,"Annette, AK"
10309,Lee,38.94277778,-76.56833333,"Annapolis, MD"
10313,Anvik Airport,62.64722222,-160.19,"Anvik, AK"
10317,Lima Allen County,40.70833333,-84.02694444,"Lima, OH"
10322,Altoona-Blair County,40.29638889,-78.32,"Altoona, PA"
10324,Amook Bay Airport,57.45472222,-153.8130556,"Amook Bay, AK"
10325,Centennial,39.57,-104.8494444,"Denver, CO"
10327,Napa County,38.21305556,-122.2805556,"Napa, CA"
10329,Naples Municipal,26.1525,-81.77555556,"Naples, FL"
10330,Phillips AAF,39.46611111,-76.16888889,"Aberdeen, MD"
10333,Alpena County Regional,45.07805556,-83.56027778,"Alpena, MI"
10336,Marion County Brown Field,35.06055556,-85.58527778,"Jasper, TN"
10337,Apple Valley Airport,34.57527778,-117.1861111,"Apple Valley, CA"
10344,Girdwood Airport,60.96888889,-149.1194444,"Girdwood, AK"
10345,Russellville Regional,35.25916667,-93.09333333,"Russellville, AR"
10346,Dennis F Cantrell Field,35.08111111,-92.42444444,"Conway, AR"
10347,Acadiana Regional,30.03777778,-91.88388889,"New Iberia, LA"
10348,Ann Arbor Municipal,42.22305556,-83.74555556,"Ann Arbor, MI"
10349,Arctic Village Airport,68.11472222,-145.5794444,"Arctic Village, AK"
10351,Antonio/Nery/Juarbe Pol,18.45083333,-66.67555556,"Arecibo, PR"
10352,Walnut Ridge Regional,36.12472222,-90.925,"Walnut Ridge, AR"
10361,Watertown International,43.99194444,-76.02055556,"Watertown, NY"
10363,Lakeland/Noble F. Lee Memorial Field,45.92805556,-89.73083333,"Minocqua/Woodruff, WI"
10372,Aspen Pitkin County Sardy Field,39.22194444,-106.8683333,"Aspen, CO"
10374,Boire Field,42.7825,-71.51416667,"Nashua, NH"
10378,Harrison County,32.52055556,-94.30777778,"Marshall, TX"
10380,Talladega Municipal,33.56944444,-86.05111111,"Talladega, AL"
10383,Austin Airport,39.46805556,-117.1975,"Austin, NV"
10385,Astoria Regional,46.15805556,-123.8786111,"Astoria/Seaside, OR"
10388,John F Kennedy Memorial,46.54861111,-90.91888889,"Ashland, WI"
10389,Ashley Municipal,46.02472222,-99.35166667,"Ashley, ND"
10393,Antlers Municipal,34.1925,-95.64972222,"Antlers, OK"
10396,Atqasuk Edward Burnell Sr. Memorial,70.46722222,-157.4355556,"Atqasuk, AK"
10397,Hartsfield-Jackson Atlanta International,33.63666667,-84.42777778,"Atlanta, GA"
10400,Ohio University,39.21194444,-82.22916667,"Athens, OH"
10404,Artesia Municipal,32.85166667,-104.4672222,"Artesia, NM"
10405,Atmautluak Airport,60.86777778,-162.2741667,"Atmautluak, AK"
10406,Casco Cove CGS,52.8325,173.1755556,"Attu, AK"
10408,Appleton International,44.25805556,-88.51916667,"Appleton, WI"
10409,Watertown Regional,44.91388889,-97.15472222,"Watertown, SD"
10414,Augusta State,44.32055556,-69.79722222,"Augusta/Waterville, ME"
10416,Alakanuk Airport,62.68305556,-164.7222222,"Alakanuk, AK"
10417,Austin Municipal,43.66277778,-92.93305556,"Austin/Albert Lea, MN"
10418,Auburn Municipal,38.95472222,-121.0816667,"Auburn, CA"
10419,Auburn University Regional,32.615,-85.43388889,"Auburn, AL"
10423,Austin - Bergstrom International,30.19444444,-97.67,"Austin, TX"
10424,Wausau Downtown,44.92638889,-89.62666667,"Wausau, WI"
10427,Aurora Municipal,41.77194444,-88.47555556,"Aurora, IL"
10431,Asheville Regional,35.43444444,-82.54277778,"Asheville, NC"
10433,Avon Park Executive,27.59138889,-81.52888889,"Avon Park, FL"
10434,Wilkes Barre Scranton International,41.33833333,-75.72333333,"Scranton/Wilkes-Barre, PA"
10436,Marana Regional,32.40944444,-111.2183333,"Tucson, AZ"
10439,Wake Island Airfield,19.2825,166.6366667,"Wake Island, TT"
10440,West Memphis Municipal,35.135,-90.23444444,"West Memphis, AR"
10442,Andrews County,32.33083333,-102.5297222,"Andrews, TX"
10445,Maxson Airfield,44.31666667,-75.89972222,"Alexandria Bay, NY"
10449,Chandler Field,45.86638889,-95.39472222,"Alexandria, MN"
10451,Altus/Quartz Mountain Regional,34.69888889,-99.33833333,"Altus, OK"
10454,Neil Armstrong,40.49361111,-84.29805556,"Wapakoneta, OH"
10455,Angel Fire,36.42194444,-105.29,"Eagle Nest, NM"
10460,Waycross-Ware County,31.24833333,-82.39527778,"Waycross, GA"
10463,Valle,35.65055556,-112.1480556,"Grand Canyon, AZ"
10464,H. A. Clark Memorial Field,35.30555556,-112.1944444,"Williams, AZ"
10465,Glendale Municipal,33.52694444,-112.2952778,"Glendale, AZ"
10466,Phoenix - Mesa Gateway,33.30777778,-111.6555556,"Phoenix, AZ"
10469,Kalamazoo/Battle Creek International,42.23444444,-85.55166667,"Kalamazoo, MI"
10471,Biddeford Municipal,43.46416667,-70.4725,"Biddeford, ME"
10472,Sugarloaf Regional,45.08555556,-70.21638889,"Carrabassett, ME"
10474,Beale AFB,39.13611111,-121.4366667,"Marysville, CA"
10476,Barksdale AFB,32.50194444,-93.6625,"Shreveport, LA"
10478,Westfield Barnes Regional,42.15805556,-72.71583333,"Westfield, MA"
10484,Battle Mountain Airport,40.59916667,-116.8744444,"Battle Mountain, NV"
10487,Baker AAF,55.36666667,-133.6,"Baker Island, AK"
10494,Bay City Municipal,28.97333333,-95.86333333,"Bay City, TX"
10504,Wings Field,40.1375,-75.26527778,"Blue Bell, PA"
10508,Virginia Tech/Montgomery Executive,37.20777778,-80.40777778,"Blacksburg, VA"
10509,Bear Creek Airport,57.6175,-155.8672222,"Bear Creek, AK"
10511,Bryce Canyon Airport,37.70638889,-112.1458333,"Bryce Canyon, UT"
10514,Baca Grande,37.96666667,-105.7666667,"Crestone, CO"
10518,Southern Seaplane,29.86611111,-90.02222222,"Belle Chasse, LA"
10519,Boca Raton Public,26.37083333,-80.10833333,"Boca Raton, FL"
10523,Baudette International,48.72833333,-94.61222222,"Baudette, MN"
10524,Blanding Municipal,37.58333333,-109.4833333,"Blanding, UT"
10529,Bradley International,41.93916667,-72.68333333,"Hartford, CT"
10535,Igor I Sikorsky Memorial,41.16333333,-73.12611111,"Bridgeport, CT"
10538,Bandon State,43.08638889,-124.4077778,"Bandon, OR"
10540,Laurence G Hanscom Field,42.47,-71.28888889,"Bedford, MA"
10543,Southwest Michigan Regional,42.12861111,-86.42611111,"Benton Harbor/St. Joseph, MI"
10551,Bethel Airport,60.77861111,-161.8372222,"Bethel, AK"
10556,Blue Fox Bay Airport,58.18333333,-152.1333333,"Blue Fox Bay, AK"
10557,Bradford Regional,41.80305556,-78.64,"Bradford, PA"
10558,Western Neb. Regional/William B. Heilig Field,41.87416667,-103.5955556,"Scottsbluff, NE"
10559,Boeing Field/King County International,47.53,-122.3019444,"Seattle, WA"
10560,Buckley AFB,39.70166667,-104.7516667,"Aurora, CO"
10561,Meadows Field,35.43388889,-119.0577778,"Bakersfield, CA"
10562,Mobile Downtown,30.62666667,-88.06805556,"Mobile, AL"
10565,Beaver County,40.7725,-80.39138889,"Beaver Falls, PA"
10567,Virgil I Grissom Municipal,38.84,-86.44527778,"Bedford, IN"
10569,Beaufort County,32.41222222,-80.63444444,"Beaufort, SC"
10572,Hutchinson County,35.70083333,-101.3936111,"Borger, TX"
10573,Decatur County Industrial Air Park,30.97166667,-84.63694444,"Bainbridge, GA"
10577,Greater Binghamton/Edwin A. Link Field,42.20833333,-75.97972222,"Binghamton, NY"
10580,Big Lake Airport,61.53472222,-149.8125,"Big Lake, AK"
10581,Bangor International,44.8075,-68.82805556,"Bangor, ME"
10582,Big Spring McMahon-Wrinkle,32.2125,-101.5216667,"Big Spring, TX"
10583,Bagdad Airport,34.59277778,-113.1719444,"Bagdad, AZ"
10589,Hancock County-Bar Harbor,44.44972222,-68.36166667,"Bar Harbor, ME"
10590,Laughlin/Bullhead International,35.15583333,-114.5594444,"Bullhead City, AZ"
10599,Birmingham-Shuttlesworth International,33.56388889,-86.75222222,"Birmingham, AL"
10612,Big Creek Airport,57.66666667,-157.5833333,"Big Creek, AK"
10613,Block Island State,41.16805556,-71.57777778,"Block Island, RI"
10614,Beatrice Municipal,40.30138889,-96.75416667,"Beatrice, NE"
10615,Biggs AAF,31.84944444,-106.38,"El Paso, TX"
10616,Allen AAF,63.99472222,-145.7202778,"Big Delta, AK"
10617,Bishop Airport,37.37305556,-118.3636111,"Bishop, CA"
10620,Billings Logan International,45.80777778,-108.5427778,"Billings, MT"
10627,Bismarck Municipal,46.77277778,-100.7458333,"Bismarck/Mandan, ND"
10629,Keesler AFB,30.41055556,-88.92444444,"Biloxi, MS"
10630,Rocky Mountain Metro,39.90888889,-105.1172222,"Broomfield, CO"
10631,Bemidji Regional,47.51083333,-94.93472222,"Bemidji, MN"
10632,Wayne County,40.87472222,-81.88833333,"Wooster, OH"
10640,Buckland Airport,65.98166667,-161.1491667,"Buckland, AK"
10641,Baker City Municipal,44.83722222,-117.8091667,"Baker, OR"
10642,Brooks Lake Airport,58.6,-156.2333333,"Brooks Lake, AK"
10643,Branson Airport,36.53194444,-93.20055556,"Branson, MO"
10644,Barking Sands PMRF,22.02277778,-159.785,"Kekaha, Kauai, HI"
10647,Burke Lakefront,41.51777778,-81.68277778,"Cleveland, OH"
10654,Raleigh County Memorial,37.78722222,-81.12416667,"Beckley, WV"
10655,Brookings Regional,44.30444444,-96.81888889,"Brookings, SD"
10661,Boulder City Municipal,35.9475,-114.8613889,"Boulder City, NV"
10663,Mercer County,37.29583333,-81.20777778,"Princeton/Bluefield, WV"
10665,Blythe Airport,33.61916667,-114.7169444,"Blythe, CA"
10666,Bellingham International,48.79277778,-122.5375,"Bellingham, WA"
10670,Monmouth Executive,40.18666667,-74.12444444,"Belmar/Farmingdale, NJ"
10676,Scott AFB/MidAmerica,38.54527778,-89.83527778,"Belleville, IL"
10680,Brigham City Airport,41.55444444,-112.0622222,"Brigham City, UT"
10683,Monroe County,39.14611111,-86.61666667,"Bloomington, IN"
10685,Central Illinois Regional,40.47722222,-88.91583333,"Bloomington/Normal, IL"
10687,Berlin Regional,44.57527778,-71.17583333,"Berlin, NH"
10692,Big Mountain AFS,59.36111111,-155.2588889,"Big Mountain, AK"
10693,Nashville International,36.12444444,-86.67805556,"Nashville, TN"
10697,Warm Spring Bay Seaplane Base,57.08916667,-134.8313889,"Baranof, AK"
10698,Banning Municipal,33.9225,-116.8508333,"Banning, CA"
10701,Barnwell Regional,33.25777778,-81.38833333,"Barnwell, SC"
10703,Burns Municipal,43.59194444,-118.9555556,"Burns, OR"
10713,Boise Air Terminal,43.56444444,-116.2227778,"Boise, ID"
10715,Brookings Airport,42.07444444,-124.29,"Brookings, OR"
10721,Logan International,42.36305556,-71.00638889,"Boston, MA"
10722,Bartow Municipal,27.94333333,-81.78333333,"Bartow, FL"
10728,Jack Brooks Regional,29.95083333,-94.02055556,"Beaumont/Port Arthur, TX"
10731,Brunswick Golden Isles,31.25916667,-81.46638889,"Brunswick, GA"
10732,Rafael Hernandez,18.49472222,-67.12944444,"Aguadilla, PR"
10735,Bartlett Cove Seaplane Base,58.45527778,-135.8852778,"Bartlett Cove, AK"
10739,Brainerd Lakes Regional,46.40416667,-94.13361111,"Brainerd, MN"
10741,Whitesburg Municipal,37.11666667,-82.81666667,"Whitesburg, KY"
10744,Southeast Iowa Regional,40.78333333,-91.12555556,"Burlington, IA"
10747,Brownsville South Padre Island International,25.90694444,-97.42583333,"Brownsville, TX"
10754,Wiley Post/Will Rogers Memorial,71.28472222,-156.7686111,"Barrow, AK"
10756,Samuels Field,37.81444444,-85.49972222,"Bardstown, KY"
10765,Bisbee Municipal,31.36388889,-109.8830556,"Bisbee, AZ"
10769,Boswell Bay Airport,60.42305556,-146.1458333,"Boswell Bay, AK"
10770,Bartletts Airport,58.23305556,-157.3663889,"Bartletts, AK"
10775,Barter Island LRRS,70.13388889,-143.5819444,"Barter Island, AK"
10778,W K Kellogg,42.30638889,-85.25,"Battle Creek, MI"
10779,Bert Mooney,45.95472222,-112.4975,"Butte, MT"
10780,Butler County/K. W. Scholter Field,40.77666667,-79.95111111,"Butler, PA"
10781,Baton Rouge Metropolitan/Ryan Field,30.53305556,-91.15,"Baton Rouge, LA"
10783,Bettles Airport,66.91388889,-151.5291667,"Bettles, AK"
10785,Burlington International,44.47194444,-73.15333333,"Burlington, VT"
10786,Beatty Airport,36.86111111,-116.7863889,"Beatty, NV"
10792,Buffalo Niagara International,42.94055556,-78.73055556,"Buffalo, NY"
10796,Butler Memorial,38.28972222,-94.34027778,"Butler, MO"
10800,Bob Hope,34.20055556,-118.3586111,"Burbank, CA"
10809,Beaver Inlet Seaport,53.8325,-166.3025,"Beaver Inlet, AK"
10811,Bartlesville Municipal,36.76333333,-96.01111111,"Bartlesville, OK"
10812,Beaver Island,45.69222222,-85.56666667,"St. James, MI"
10814,Batesville Regional,35.72611111,-91.6475,"Batesville, AR"
10815,Beverly Municipal,42.58416667,-70.91611111,"Beverly, MA"
10817,Brownwood Regional,31.79361111,-98.95638889,"Brownwood, TX"
10819,Bowling Green-Warren County Regional,36.96444444,-86.41972222,"Bowling Green, KY"
10821,Baltimore/Washington International Thurgood Marshall,39.17583333,-76.66888889,"Baltimore, MD"
10823,Bowman Municipal,46.18694444,-103.4280556,"Bowman, ND"
10828,Sheraton Inn Heliport,42.48472222,-71.54444444,"Boxborough, MA"
10832,Borrego Valley,33.25916667,-116.3208333,"Borrego Springs, CA"
10834,Boundary Airport,64.07833333,-141.1133333,"Boundary, AK"
10836,Rock Hill/York County/Bryant Field,34.98777778,-81.05722222,"Rock Hill, SC"
10837,Johnson County,44.38111111,-106.7216667,"Buffalo, WY"
10838,Arkansas International,35.96444444,-89.94388889,"Blytheville, AR"
10839,Burley Municipal,42.5425,-113.7716667,"Burley/Rupert, ID"
10841,Boyne Mountain,45.16583333,-84.92416667,"Boyne Falls, MI"
10844,Blakely Island Airport,48.57888889,-122.8263889,"Blakely Island, WA"
10849,Bozeman Yellowstone International,45.7775,-111.1519444,"Bozeman, MT"
10853,Eagle Air Park,28.98222222,-95.57972222,"Brazoria, TX"
10857,Camarillo Airport,34.21361111,-119.0944444,"Camarillo, CA"
10858,Bakersfield Municipal,35.32472222,-118.9961111,"Bakersfield, CA"
10867,Wexford County,44.27527778,-85.41888889,"Cadillac, MI"
10868,Columbia Metropolitan,33.93888889,-81.11944444,"Columbia, SC"
10874,Akron-Canton Regional,40.915,-81.44361111,"Akron, OH"
10879,Caribou Municipal,46.87166667,-68.01805556,"Caribou, ME"
10886,Corner Bay Airport,57.73777778,-135.1255556,"Corner Bay, AK"
10888,Greater Cumberland Regional,39.61555556,-78.76083333,"Cumberland, MD"
10889,Council Bluffs Municipal,41.26,-95.75861111,"Council Bluffs, IA"
10892,Murray,39.40388889,-101.0466667,"Colby, KS"
10894,Columbus AFB,33.64527778,-88.44583333,"Columbus, MS"
10910,Buchanan Field,37.98972222,-122.0569444,"Concord, CA"
10915,Northeast Iowa Regional,43.0725,-92.61083333,"Charles City, IA"
10917,Cold Bay Airport,55.20527778,-162.7244444,"Cold Bay, AK"
10918,Cedar City Regional,37.70083333,-113.0988889,"Cedar City, UT"
10921,Harrell Field,33.62277778,-92.76333333,"Camden, AR"
10923,Candle 2,65.90777778,-161.9263889,"Candle, AK"
10924,Woodward Field,34.28361111,-80.56472222,"Camden, SC"
10925,Chadron Municipal,42.8375,-103.0952778,"Chadron, NE"
10926,Merle K Mudhole Smith,60.49166667,-145.4775,"Cordova, AK"
10927,Essex County,40.87527778,-74.28138889,"Caldwell, NJ"
10928,Cessna Aircraft Field,37.64861111,-97.25055556,"Wichita, KS"
10930,Jack McNamara Field,41.78027778,-124.2366667,"Crescent City, CA"
10933,Westover ARB Metropolitan,42.19388889,-72.53472222,"Chicopee Falls, MA"
10938,Central Airport,65.57388889,-144.7808333,"Central, AK"
10945,Oconee County Regional,34.67222222,-82.88583333,"Clemson, SC"
10946,Mettel Field,39.69805556,-85.13111111,"Connersville, IN"
10947,Bob Sikes,30.77888889,-86.52222222,"Crestview, FL"
10948,Chena Hot Springs Airport,65.05194444,-146.0475,"Chena Hot Springs, AK"
10949,Kyle-Oakley Field,36.66444444,-88.37277778,"Murray, KY"
10950,Cortez Municipal,37.30305556,-108.6280556,"Cortez, CO"
10951,Coffee Point Airport,58.21666667,-157.5,"Coffee Point, AK"
10958,Greenlee County,32.95694444,-109.2111111,"Clifton, AZ"
10960,Coffeyville Municipal,37.09388889,-95.57194444,"Coffeyville, KS"
10961,Craig Seaplane Base,55.47916667,-133.1461111,"Craig, AK"
10964,Cambridge Dorchester Regional,38.53944444,-76.03027778,"Cambridge, MD"
10965,Cuyahoga County,41.565,-81.48638889,"Cleveland, OH"
10967,Cape Girardeau Regional,37.22527778,-89.57083333,"Cape Girardeau, MO"
10975,College Park Airport,38.98055556,-76.92222222,"College Park, MD"
10977,Meigs Field,41.85888889,-87.60833333,"Chicago, IL"
10979,Casa Grande Municipal,32.955,-111.7669444,"Casa Grande, AZ"
10980,Lovell Field,35.03527778,-85.20361111,"Chattanooga, TN"
10982,Chandler Municipal,33.26916667,-111.8111111,"Chandler, AZ"
10986,Chicago Metropolitan Area,41.87388889,-87.75555556,"Chicago, IL"
10987,Challis Airport,44.52361111,-114.2180556,"Challis, ID"
10990,Charlottesville Albemarle,38.13861111,-78.45277778,"Charlottesville, VA"
10991,Circle Hot Springs Airport,65.48583333,-144.6116667,"Circle Hot Springs, AK"
10994,Charleston AFB/International,32.89861111,-80.04055556,"Charleston, SC"
10996,Chuathbaluk Airport,61.57916667,-159.2155556,"Chuathbaluk, AK"
10999,Chiloquin State,42.57944444,-121.8788889,"Chiloquin, OR"
11001,Catalina,33.405,-118.4158333,"Avalon, CA"
11002,Chico Municipal,39.79527778,-121.8583333,"Chico, CA"
11003,The Eastern Iowa,41.88472222,-91.71083333,"Cedar Rapids/Iowa City, IA"
11004,Craig-Moffat,40.49527778,-107.5216667,"Craig, CO"
11007,Chalkyitsik Airport,66.645,-143.74,"Chalkyitsik, AK"
11008,Council Airport,64.89666667,-163.7036111,"Council, AK"
11009,Arthur N Neu,42.04666667,-94.78861111,"Carroll, IA"
11011,Cairo Regional,37.06416667,-89.21944444,"Cairo, IL"
11013,Chippewa County International,46.25083333,-84.4725,"Sault Ste. Marie, MI"
11014,Chomley Airport,55.24777778,-132.3236111,"Chomley, AK"
11021,Crafton Island Airport,60.50277778,-147.9402778,"Crafton Island, AK"
11026,Clay Center Municipal,39.38722222,-97.15722222,"Clay Center, KS"
11027,North Central West Virginia,39.29777778,-80.2275,"Clarksburg/Fairmont, WV"
11028,Crooked Creek Airport,61.86777778,-158.135,"Crooked Creek, AK"
11029,Pearce Field,38.93472222,-122.6222222,"Clear Lake, CA"
11031,Fletcher Field,34.29972222,-90.51222222,"Clarksdale, MS"
11034,Cordova Municipal,60.54361111,-145.7258333,"Cordova, AK"
11035,Outlaw Field,36.62194444,-87.415,"Clarksville, TN"
11036,Chicken Airport,64.06666667,-141.9513889,"Chicken, AK"
11041,McClellan-Palomar,33.12833333,-117.28,"Carlsbad, CA"
11042,Cleveland-Hopkins International,41.40944444,-81.85472222,"Cleveland, OH"
11043,Clear Mews,64.30166667,-149.1177778,"Clear, AK"
11044,New Coalinga Municipal,36.16222222,-120.2947222,"Coalinga, CA"
11046,Clintonville Municipal,44.61333333,-88.73083333,"Clintonville, WI"
11048,Clinton Regional,35.53833333,-98.93277778,"Clinton, OK"
11049,Easterwood Field,30.58861111,-96.36388889,"College Station/Bryan, TX"
11050,William R. Fairchild International,48.12027778,-123.4997222,"Port Angeles, WA"
11053,Clarks Point Airport,58.83361111,-158.5294444,"Clarks Point, AK"
11055,Cliff Hatfield Memorial,33.13138889,-115.5213889,"Calipatria, CA"
11056,Chehalis Centralia,46.67694444,-122.9827778,"Chehalis, WA"
11057,Charlotte Douglas International,35.21361111,-80.94916667,"Charlotte, NC"
11058,Columbus Municipal,39.26194444,-85.89638889,"Columbus, IN"
11066,Port Columbus International,39.99694444,-82.89222222,"Columbus, OH"
11067,University of Illinois/Willard,40.03888889,-88.27777778,"Champaign/Urbana, IL"
11076,Houghton County Memorial,47.16833333,-88.48916667,"Hancock/Houghton, MI"
11081,Fremont County,38.42861111,-105.1069444,"Canon City, CO"
11083,Blosser Municipal,39.54916667,-97.65222222,"Concordia, KS"
11085,Cavern City Air Terminal,32.3375,-104.2633333,"Carlsbad, NM"
11086,Chino Airport,33.97472222,-117.6363889,"Chino, CA"
11090,TSTC Waco,31.63777778,-97.07416667,"Waco, TX"
11092,Canyonlands Field,38.755,-109.7547222,"Moab, UT"
11093,Marina Municipal,36.68166667,-121.7616667,"Marina, CA"
11095,Columbia Airport,38.03055556,-120.4144444,"Columbia, CA"
11097,Yellowstone Regional,44.52027778,-109.0238889,"Cody, WY"
11098,Coeur d'Alene - Pappy Boyington Field,47.77444444,-116.8194444,"Coeur d'Alene, ID"
11099,Patrick AFB,28.235,-80.61,"Cocoa Beach, FL"
11105,Coleman Municipal,31.84111111,-99.40361111,"Coleman, TX"
11106,Concord Municipal,43.20277778,-71.50222222,"Concord, NH"
11109,City of Colorado Springs Municipal,38.80583333,-104.7008333,"Colorado Springs, CO"
11110,Cotulla-La Salle County,28.45583333,-99.21722222,"Cotulla, TX"
11111,Columbia Regional,38.81805556,-92.21972222,"Columbia, MO"
11122,Casper/Natrona County International,42.90583333,-106.4636111,"Casper, WY"
11123,Bi-State Parks,38.57138889,-90.15722222,"St. Louis, MO"
11126,Benjamin Rivera Noriega,18.31305556,-65.30388889,"Culebra, PR"
11128,Glen-Aspen,39.38888889,-107.16,"Carbondale, CO"
11130,Cheraw Municipal/Lynch Bellinger Field,34.71277778,-79.95694444,"Cheraw, SC"
11135,Grand Strand,33.81166667,-78.72388889,"Myrtle Beach, SC"
11136,Jacksonville Executive at Craig,30.33638889,-81.51444444,"Jacksonville, FL"
11140,Corpus Christi International,27.77222222,-97.5025,"Corpus Christi, TX"
11143,C David Campbell Field-Corsicana Municipal,32.02805556,-96.40055556,"Corsicana, TX"
11146,Yeager,38.37583333,-81.59305556,"Charleston/Dunbar, WV"
11147,Roscoe Turner,34.915,-88.60361111,"Corinth, MS"
11149,Buckhorn Ranch,38.85194444,-106.9327778,"Crested Butte, CO"
11150,Columbus Airport,32.51638889,-84.93888889,"Columbus, GA"
11152,Clinton Sherman,35.33972222,-99.20055556,"Clinton, OK"
11153,Carson,39.19222222,-119.7325,"Carson City, NV"
11154,Cape Spencer C.G. Helipad,58.19916667,-136.6388889,"Cape Spencer, AK"
11159,Crossville Memorial-Whitson Field,35.95138889,-85.085,"Crossville, TN"
11162,Cut Bank International,48.60833333,-112.3761111,"Cut Bank, MT"
11165,Chester County G. O. Carlson,39.97888889,-75.86555556,"Coatesville, PA"
11169,Calverton Executive Airpark,40.915,-72.79194444,"Calverton, NY"
11173,Cottonwood Airport,34.73,-112.0352778,"Cottonwood, AZ"
11174,Cortland County Chase Field,42.59277778,-76.215,"Cortland, NY"
11175,Cross City Airport,29.63555556,-83.10472222,"Cross City, FL"
11176,Jim Hamilton L. B. Owens,33.97055556,-80.99527778,"Columbia, SC"
11188,Cube Cove Airport,57.94166667,-134.75,"Cube Cove, AK"
11191,Civic Arena H/P,40.48333333,-80.21666667,"Pittsburgh, PA"
11193,Cincinnati/Northern Kentucky International,39.04888889,-84.66777778,"Cincinnati, OH"
11197,Clovis Municipal,34.42666667,-103.0775,"Clovis, NM"
11198,Corvallis Municipal,44.49722222,-123.2894444,"Corvallis, OR"
11200,Cannon AFB,34.3825,-103.3225,"Clovis, NM"
11202,Charlevoix Municipal,45.30472222,-85.27527778,"Charlevoix, MI"
11203,Central Wisconsin,44.7775,-89.66666667,"Mosinee, WI"
11207,Clinton Municipal,41.83083333,-90.32888889,"Clinton, IA"
11209,Center Island Airport,48.49,-122.8322222,"Center Island, WA"
11213,Chitina Airport,61.58333333,-144.4297222,"Chitina, AK"
11214,Coldfoot Airport,67.25222222,-150.2038889,"Coldfoot, AK"
11218,Calexico International,32.6675,-115.5175,"Calexico, CA"
11219,Lone Star Executive,30.35333333,-95.415,"Conroe, TX"
11227,Chefornak Airport,60.13666667,-164.2791667,"Chefornak, AK"
11230,Chatham Airport,57.51527778,-134.9444444,"Chatham, AK"
11233,Cheyenne Regional/Jerry Olson Field,41.15555556,-104.8105556,"Cheyenne, WY"
11234,Yakataga,60.08083333,-142.4955556,"Cape Yakataga, AK"
11238,Copper Center 2,61.94111111,-145.2941667,"Copper Center, AK"
11241,Cape Romanzof LRRS,61.78027778,-166.0386111,"Cape Romanzof, AK"
11245,Chisana Airport,62.07166667,-142.0494444,"Chisana, AK"
11246,Chistochina Airport,62.56222222,-144.6725,"Chistochina, AK"
11247,Cape Pole Airport,55.965,-133.7933333,"Cape Pole, AK"
11252,Daytona Beach International,29.18,-81.05805556,"Daytona Beach, FL"
11257,Barstow/Daggett,34.85361111,-116.7866667,"Daggett, CA"
11259,Dallas Love Field,32.84722222,-96.85166667,"Dallas, TX"
11261,Danville Regional,36.57277778,-79.33611111,"Danville, VA"
11267,James M Cox/Dayton International,39.90222222,-84.21944444,"Dayton, OH"
11272,W H Bud Barron,32.56472222,-82.985,"Dublin, GA"
11274,Dubuque Regional,42.40194444,-90.70944444,"Dubuque, IA"
11278,Ronald Reagan Washington National,38.85138889,-77.03777778,"Washington, DC"
11280,Dahl Creek Airport,66.9425,-156.8913889,"Dahl Creek, AK"
11282,Pryor Field Regional,34.65416667,-86.94527778,"Decatur, AL"
11283,Dodge City Regional,37.76305556,-99.96555556,"Dodge City, KS"
11284,Dorado Airport,18.46388889,-66.29333333,"Dorado, PR"
11288,Decatur Airport,39.83444444,-88.86555556,"Decatur, IL"
11289,Decorah Municipal,43.27555556,-91.73944444,"Decorah, IA"
11292,Denver International,39.86166667,-104.6730556,"Denver, CO"
11295,Coleman A. Young Municipal,42.40944444,-83.01027778,"Detroit, MI"
11297,Defiance Memorial,41.3375,-84.42888889,"Defiance, OH"
11298,Dallas/Fort Worth International,32.89722222,-97.03777778,"Dallas/Fort Worth, TX"
11299,Danger Bay Airport,58.13333333,-152.55,"Danger Bay, AK"
11303,Converse County,42.79722222,-105.3858333,"Douglas, WY"
11308,Dothan Regional,31.32111111,-85.44944444,"Dothan, AL"
11309,Dalhart Municipal,36.0225,-102.5475,"Dalhart, TX"
11315,Dickinson - Theodore Roosevelt Regional,46.79722222,-102.8019444,"Dickinson, ND"
11317,Diomede Heliport,65.75861111,-168.9530556,"Diomede Island, AK"
11327,Delta Junction Airport,64.05,-145.7225,"Delta Junction, AK"
11331,Chautauqua County/Dunkirk,42.49388889,-79.27111111,"Dunkirk, NY"
11335,Laughlin AFB,29.35944444,-100.7780556,"Del Rio, TX"
11336,Dillingham Airport,59.04472222,-158.5055556,"Dillingham, AK"
11337,Duluth International,46.84194444,-92.19361111,"Duluth, MN"
11339,Dillon County,34.44916667,-79.36861111,"Dillon, SC"
11341,Dolomi Airport,55.12222222,-132.05,"Dolomi, AK"
11342,Columbia Gorge Regional/The Dalles Municipal,45.61944444,-121.1683333,"The Dalles, OR"
11344,Davis Monthan AFB,32.16638889,-110.8830556,"Tucson, AZ"
11348,Deming Municipal,32.2625,-107.7188889,"Deming, NM"
11349,Sedalia Regional,38.7075,-93.17583333,"Sedalia, MO"
11353,Duncan Canal Airport,56.75694444,-133.2216667,"Duncan Canal, AK"
11355,Dallas North,33.07888889,-96.73833333,"Dallas/Fort Worth, TX"
11358,Daniel Field,33.46666667,-82.03944444,"Augusta, GA"
11359,Dalton Municipal,34.72305556,-84.87027778,"Dalton, GA"
11363,Vermilion Regional,40.19972222,-87.59555556,"Danville, IL"
11367,Dora Bay Airport,55.23333333,-132.2166667,"Dora Bay, AK"
11375,Dover AFB,39.12944444,-75.46583333,"Dover, DE"
11376,Du Page County,41.91555556,-88.24666667,"Chicago, IL"
11377,Michael AAF,40.19944444,-112.9375,"Dugway, UT"
11381,Badami,70.1375,-147.0305556,"Deadhorse, AK"
11383,Sebastian Municipal,27.81333333,-80.49555556,"Sebastian, FL"
11384,Allen H Tigert,42.64861111,-111.5819444,"Soda Springs, ID"
11385,Holtville Airport,32.845,-115.2686111,"Holtville, CA"
11387,Springfield Robertson County,36.53666667,-86.92111111,"Springfield, TN"
11389,Colusa County,39.17888889,-121.9933333,"Colusa, CA"
11390,Dunn County Weydahl Field,47.39138889,-102.7719444,"Killdeer, ND"
11391,Wheeler-Sack AAF,44.05583333,-75.71944444,"Fort Drum, NY"
11392,Lake Hood Strip,61.18666667,-149.9652778,"Anchorage, AK"
11394,New Smyrna Beach Municipal,29.05555556,-80.94888889,"New Smyrna Beach, FL"
11395,Delhi Municipal,32.41083333,-91.49861111,"Delhi, LA"
11396,Marshall Field,38.23638889,-89.35861111,"Georgetown, KY"
11397,Cozad Municipal,40.86972222,-100.0041667,"Cozad, NE"
11399,Grand Canyon Bar Ten Airstrip,36.25638889,-113.2308333,"Whitmore, AZ"
11401,Neets Bay,55.77888889,-131.6013889,"Ketchikan, AK"
11402,Glacier Point,59.1025,-135.3822222,"Haines, AK"
11403,Hualapai,35.57222222,-113.2925,"Peach Springs, AZ"
11404,Tsui River Airport,60.07472222,-143.0866667,"Tsui River, AK"
11405,Cape Canaveral AFS Skid Strip,28.4675,-80.56666667,"Cape Canaveral, FL"
11406,Platinum Mine,58.91166667,-161.7138889,"Platinum, AK"
11407,Desert Rock,36.62,-116.0322222,"Mercury, NV"
11409,Drummond Island Airport,46.00944444,-83.74388889,"Drummond Island, MI"
11410,Drift River Airport,60.58888889,-152.1619444,"Drift River, AK"
11411,Deering Airport,66.06916667,-162.7669444,"Deering, AK"
11413,Durango La Plata County,37.16388889,-107.7422222,"Durango, CO"
11415,Del Rio International,29.37416667,-100.9272222,"Del Rio, TX"
11416,Drummond Airport,46.62083333,-113.205,"Drummond, MT"
11421,Destin Executive,30.4,-86.47138889,"Destin, FL"
11423,Des Moines International,41.53416667,-93.6575,"Des Moines, IA"
11424,Delta Municipal,39.38361111,-112.5022222,"Delta, UT"
11425,Furnace Creek,36.46055556,-116.8797222,"Death Valley, CA"
11427,Detroit Lakes-Wething Field,46.82527778,-95.88555556,"Detroit Lakes, MN"
11429,Shreveport Downtown,32.54027778,-93.745,"Shreveport, LA"
11430,Denton Enterprise,33.20222222,-97.19805556,"Denton, TX"
11431,Decatur,48.51,-122.8030556,"Decatur Island, WA"
11432,Detroit Metropolitan Area,42.31277778,-83.17861111,"Detroit, MI"
11433,Detroit Metro Wayne County,42.2125,-83.35333333,"Detroit, MI"
11434,Eaker Field,33.93333333,-96.4,"Durant, OK"
11436,Halliburton Field,34.47138889,-97.95972222,"Duncan, OK"
11439,Pine Island,36.25361111,-75.78861111,"Duck, NC"
11440,Bisbee Douglas International,31.46888889,-109.6038889,"Douglas, AZ"
11441,DuBois Regional,41.17833333,-78.89861111,"DuBois, PA"
11445,Unalaska Airport,53.89888889,-166.545,"Unalaska, AK"
11447,Devils Lake Regional,48.11666667,-98.91,"Devils Lake, ND"
11448,Davenport Municipal,41.61027778,-90.58833333,"Davenport, IA"
11450,Phoenix - Deer Valley,33.68833333,-112.0825,"Phoenix, AZ"
11452,Yolo County,38.57944444,-121.8569444,"Davis/Woodland/Winters, CA"
11453,David Wayne Hooks Memorial,30.06194444,-95.55277778,"Houston, TX"
11456,Danbury Municipal,41.37166667,-73.48222222,"Danbury, CT"
11459,Dyess AFB,32.42055556,-99.85472222,"Abilene, TX"
11463,Eagle Airport,64.77805556,-141.1497222,"Eagle, AK"
11464,Eagle Creek Strip,67.56222222,-162.9752778,"Noatak, AK"
11467,Phifer Airfield,42.05611111,-104.9386111,"Wheatland, WY"
11468,Kearney Regional,40.72694444,-99.00666667,"Kearney, NE"
11470,Pangborn Memorial,47.39805556,-120.2058333,"Wenatchee, WA"
11471,Chippewa Valley Regional,44.86583333,-91.48416667,"Eau Claire, WI"
11478,Iosco County,44.31277778,-83.42222222,"East Tawas, MI"
11479,Elizabeth City CGAS/Regional,36.26055556,-76.17444444,"Elizabeth City, NC"
11481,Northwest Florida Beaches International,30.35833333,-85.79555556,"Panama City, FL"
11482,Mondell Field,43.88416667,-104.3144444,"Newcastle, WY"
11483,Edwards County,29.94694444,-100.1738889,"Rocksprings, TX"
11484,Edna Bay Airport,55.93638889,-133.6555556,"Edna Bay, AK"
11486,Northeastern Regional,36.02777778,-76.56722222,"Edenton, NC"
11487,Elmendorf AFB,61.25138889,-149.8063889,"Anchorage, AK"
11490,Edwards AFB,34.91805556,-117.8791667,"Edwards, CA"
11491,Needles Airport,34.76638889,-114.6233333,"Needles, CA"
11492,Eek Airport,60.21361111,-162.0438889,"Eek, AK"
11493,Dillant Hopkins,42.89833333,-72.27083333,"Keene, NH"
11494,Eight Fathom Bight Airport,58,-135.7333333,"Eight Fathom Bight, AK"
11495,Ellington,29.60722222,-95.15861111,"Houston, TX"
11496,Newport State,44.88805556,-72.22861111,"Newport, VT"
11501,Chenega Airport,60.28333333,-148.0833333,"Chenega, AK"
11503,Eagle County Regional,39.64277778,-106.9158333,"Eagle, CO"
11504,Duke Field,30.64861111,-86.52194444,"Crestview, FL"
11506,Eagle Pass Municipal,28.70222222,-100.4805556,"Eagle Pass, TX"
11508,Wellington Municipal,37.32361111,-97.38833333,"Wellington, KS"
11510,Eagle River Union,45.93222222,-89.26833333,"Eagle River, WI"
11511,Egegik Airport,58.18555556,-157.3755556,"Egegik, AK"
11512,Cape Newenham LRRS,58.64805556,-162.0630556,"Cape Newenham, AK"
11513,Eagle Harbor Airport,57.41666667,-152.7166667,"Eagle Harbor, AK"
11514,Rentschler Heliport,41.75333333,-72.62833333,"East Hartford, CT"
11517,Eielson AFB,64.66555556,-147.1013889,"Fairbanks, AK"
11522,Murray Field,40.80333333,-124.1127778,"Eureka, CA"
11523,Elkhart Municipal,41.71944444,-86.00333333,"Elkhart, IN"
11524,Elkins-Randolph County-Jennings Randolph Field,38.88944444,-79.85722222,"Elkins, WV"
11525,Elko Regional,40.825,-115.7913889,"Elko, NV"
11526,Addington Field,37.68611111,-85.925,"Elizabethtown, KY"
11527,Bessemer Airport,33.3125,-86.92638889,"Bessemer, AL"
11528,Eagle Lake Airport,29.60055556,-96.32194444,"Eagle Lake, TX"
11531,South Arkansas Regional at Goodwin Field,33.22083333,-92.81333333,"El Dorado, AR"
11535,Elim Airport,64.615,-162.2705556,"Elim, AK"
11537,Elmira/Corning Regional,42.15972222,-76.89194444,"Elmira/Corning, NY"
11538,Bowers Field,47.03305556,-120.5305556,"Ellensburg, WA"
11540,El Paso International,31.80722222,-106.3763889,"El Paso, TX"
11545,Elfin Cove Seaplane Base,58.2,-136.3166667,"Elfin Cove, AK"
11546,Ellamar Seaplane Base,60.89333333,-146.7083333,"Ellamar, AK"
11547,Ely Airport/Yelland Field,39.29972222,-114.8419444,"Ely, NV"
11550,Emmonak Airport,62.78611111,-164.4908333,"Emmonak, AK"
11551,Kemmerer Municipal,41.82416667,-110.5569444,"Kemmerer, WY"
11553,Emporia Municipal,38.33055556,-96.19,"Emporia, KS"
11554,El Monte Airport,34.08611111,-118.0347222,"El Monte, CA"
11555,Kenai Municipal,60.57333333,-151.2447222,"Kenai, AK"
11557,Vance AFB,36.33916667,-97.91638889,"Enid, OK"
11558,Centralia Municipal,38.515,-89.09111111,"Centralia, IL"
11559,Nenana Municipal,64.54722222,-149.0738889,"Nenana, AK"
11563,Wendover Airport,40.71861111,-114.0286111,"Wendover, UT"
11564,Kenosha Regional,42.59555556,-87.92777778,"Kenosha, WI"
11566,Keokuk Municipal,40.46,-91.42861111,"Keokuk, IA"
11567,Ephrata Municipal,47.30805556,-119.5169444,"Ephrata/Moses Lake, WA"
11577,Erie International/Tom Ridge Field,42.08305556,-80.17388889,"Erie, PA"
11582,Kerrville Municipal/Louis Schreiner Field,29.97666667,-99.08555556,"Kerrville, TX"
11587,Delta County,45.72277778,-87.09361111,"Escanaba, MI"
11588,Orcas Island,48.70833333,-122.9105556,"Eastsound, WA"
11590,Esler Regional,31.395,-92.29583333,"Alexandria, LA"
11592,Easton/Newnam Field,38.80416667,-76.06888889,"Easton, MD"
11593,Stroudsburg Pocono,41.03583333,-75.16055556,"Stroudsburg, PA"
11597,Eastland Municipal,32.415,-98.80972222,"Eastland, TX"
11598,Enterprise Municipal,31.29972222,-85.89972222,"Enterprise, AL"
11601,Eureka Airport,39.60361111,-116.0036111,"Eureka, NV"
11602,Weedon Field,31.95138889,-85.12888889,"Eufaula, AL"
11603,Mahlon Sweet Field,44.12444444,-123.2119444,"Eugene, OR"
11606,Eva Creek Airport,64.04194444,-148.8630556,"Eva Creek, AK"
11609,Eveleth Virginia Municipal,47.42416667,-92.49666667,"Eveleth, MN"
11612,Evansville Regional,38.04083333,-87.52861111,"Evansville, IN"
11613,Evanston-Uinta County Burns Field,41.27472222,-111.0347222,"Evanston, WY"
11615,New Bedford Regional,41.67666667,-70.95777778,"New Bedford/Fall River, MA"
11616,Newton City County,38.05694444,-97.27527778,"Newton, KS"
11617,Coastal Carolina Regional,35.07277778,-77.04305556,"New Bern/Morehead/Beaufort, NC"
11618,Newark Liberty International,40.6925,-74.16861111,"Newark, NJ"
11619,Excursion Inlet Seaplane Base,58.42083333,-135.4472222,"Excursion Inlet, AK"
11624,Key West International,24.55611111,-81.75944444,"Key West, FL"
11627,French Valley,33.57416667,-117.1283333,"Murrieta/Temecula, CA"
11630,Fairbanks International,64.815,-147.8563889,"Fairbanks, AK"
11631,Diego Jimenez Torres,18.30888889,-65.66166667,"Fajardo, PR"
11632,False Island Airport,57.51666667,-135.2166667,"False Island, AK"
11633,Falcon State Park,26.58333333,-99.13333333,"Roma, TX"
11634,Farmington Regional,37.76111111,-90.42861111,"Farmington, MO"
11637,Hector International,46.92055556,-96.81583333,"Fargo, ND"
11638,Fresno Yosemite International,36.77666667,-119.7188889,"Fresno, CA"
11639,Fairmount Island Airport,60.89611111,-147.4466667,"Fairmount Island, AK"
11641,Fayetteville Regional/Grannis Field,34.99111111,-78.88027778,"Fayetteville, NC"
11642,Simmons AAF,35.13194444,-78.93611111,"Fort Bragg, NC"
11643,Ladd AAF,64.8375,-147.6144444,"Fairbanks, AK"
11645,Fort Bridger Airport,41.39333333,-110.4058333,"Fort Bridger, WY"
11646,Friday Harbor Seaplane Base,48.5375,-123.0083333,"Friday Harbor, WA"
11648,Glacier Park International,48.31055556,-114.2561111,"Kalispell, MT"
11649,Fresno Chandler Executive,36.73222222,-119.8202778,"Fresno, CA"
11650,Flying Cloud,44.8275,-93.45861111,"Minneapolis, MN"
11652,Butts AAF,38.67972222,-104.7608333,"Colorado Springs, CO"
11656,Frederick Municipal,39.4175,-77.37444444,"Frederick, MD"
11657,Frederick Regional,34.35222222,-98.98388889,"Frederick, OK"
11659,Findlay Airport,41.01194444,-83.66861111,"Findlay, OH"
11662,Albertus,42.24611111,-89.58194444,"Freeport, IL"
11663,Fremont Municipal,41.44972222,-96.52111111,"Fremont, NE"
11664,Francis E. Warren AFB Heliport,41.13333333,-104.8672222,"Cheyenne, WY"
11667,Fergus Falls Municipal-Einar Mickelson Field,46.28444444,-96.15666667,"Fergus Falls, MN"
11668,Wright-Patterson AFB,39.82611111,-84.04833333,"Dayton, OH"
11669,Capital City,38.18166667,-84.90666667,"Frankfort, KY"
11673,Sierra Vista Municipal-Libby AAF,31.58833333,-110.3444444,"Fort Huachuca, AZ"
11674,Fire Cove Airport,55.77777778,-131.5375,"Fire Cove, AK"
11675,Elizabeth Field,41.25138889,-72.03166667,"Fishers Island, NY"
11677,Fillmore Municipal,38.95805556,-112.3630556,"Fillmore, UT"
11684,Venango Regional,41.3775,-79.86055556,"Franklin/Oil City, PA"
11686,Zephyrhills Municipal,28.22805556,-82.15583333,"Zephyrhills, FL"
11687,Valkaria Airport,27.96083333,-80.55833333,"Valkaria, FL"
11689,Flagler Executive,29.46583333,-81.20861111,"Bunnell, FL"
11690,Williston Municipal,29.35555556,-82.47194444,"Williston, FL"
11693,Fond Du Lac County,43.77111111,-88.48833333,"Fond Du Lac, WI"
11695,Flagstaff Pulliam,35.14027778,-111.6691667,"Flagstaff, AZ"
11696,Falls Bay Airport,60.51666667,-148,"Falls Bay, AK"
11697,Fort Lauderdale-Hollywood International,26.07166667,-80.14972222,"Fort Lauderdale, FL"
11699,Florence Regional,34.18527778,-79.72388889,"Florence, SC"
11702,Flat Airport,62.45277778,-157.9891667,"Flat, AK"
11703,Flushing,40.77916667,-73.83277778,"New York, NY"
11704,Sherman AAF,39.36833333,-94.91472222,"Leavenworth, KS"
11706,Fallon Municipal,39.49916667,-118.7488889,"Fallon, NV"
11709,Cape Cod CGAS,41.65916667,-70.52277778,"Falmouth, MA"
11711,Four Corners Regional,36.74138889,-108.23,"Farmington, NM"
11713,Fort Madison Municipal,40.65916667,-91.32777778,"Fort Madison, IA"
11714,Page Field,26.58666667,-81.86333333,"Fort Myers, FL"
11719,Fort Collins-Loveland Municipal,40.45194444,-105.0113889,"Fort Collins/Loveland, CO"
11720,Funter Bay,58.25,-134.9,"Funter Bay Alaska, AK"
11721,Bishop International,42.96555556,-83.74472222,"Flint, MI"
11723,Fort Bragg Airport,39.47444444,-123.7955556,"Fort Bragg, CA"
11725,Fort Dodge Regional,42.55111111,-94.19194444,"Fort Dodge, IA"
11726,Topeka Regional,38.95083333,-95.66361111,"Topeka, KS"
11728,Francis S. Gabreski,40.84361111,-72.63166667,"Westhampton, NY"
11732,Treasure Coast International,27.4975,-80.37277778,"Fort Pierce, FL"
11733,Perry-Foley,30.06916667,-83.58055556,"Perry, FL"
11734,Patching Lake Airport,55.60611111,-131.4833333,"Patching Lake, AK"
11735,San Nicolas Island NOLF,33.23972222,-119.4583333,"Ventura, CA"
11736,Lilly Lake,57.80555556,-152.3805556,"Kodiak, AK"
11737,Trident Volcano,58.235,-155.1036111,"Katmai National Park, AK"
11738,Annex Creek Airport,58.31333333,-134.1041667,"Annex Creek, AK"
11739,Davidson Creek Airport,58.35277778,-133.9913889,"Davidson Creek, AK"
11740,Snettisham Airport,58.13444444,-133.7294444,"Snettisham, AK"
11741,Fire Island Airport,61.16833333,-150.1605556,"Fire Island, AK"
11742,Georgetown Scott County - Marshall Field,38.23444444,-84.43472222,"Scott, KY"
11743,Greens Creek Airport,58.09861111,-134.76,"Greens Creek, AK"
11744,Gull Cove Airport,58.21472222,-136.1563889,"Gull Cove, AK"
11745,Flora Municipal,38.665,-88.45305556,"Flora, IL"
11747,Karta Lake Airport,55.56222222,-132.6305556,"Karta Lake, AK"
11748,Manzanita Lake Airport,55.56666667,-131.0563889,"Manzanita Lake, AK"
11749,Shrimp Bay Airport,55.83444444,-131.4847222,"Shrimp Bay, AK"
11750,Dry Bay Airport,59.14666667,-138.5636111,"Dry Bay, AK"
11751,Josephine Lake Airport,55.24361111,-132.5733333,"Josephine Lake, AK"
11754,Libby Airport,48.28388889,-115.4902778,"Libby, MT"
11755,Volcano Bay Airport,53.81444444,-167.1194444,"Volcano Bay, AK"
11756,Fort Glenn Airport,53.36666667,-167.8833333,"Fort Glenn, AK"
11757,Babe Islands Airport,55.21027778,-132.1319444,"Babe Islands, AK"
11758,Kahli Cove Airport,55.92638889,-133.2527778,"Kahli Cove, AK"
11762,Friday Harbor Airport,48.52194444,-123.0244444,"Friday Harbor, WA"
11764,Republic,40.72888889,-73.41333333,"East Farmingdale, NY"
11766,Fairmont Municipal,43.64388889,-94.41555556,"Fairmont, MN"
11768,Fresh Water Bay Airport,57.85,-134.9833333,"Fresh Water Bay, AK"
11769,Front Royal-Warren County,38.9175,-78.25333333,"Front Royal, VA"
11773,Eastern Slopes Regional,43.99111111,-70.94777778,"Fryeburg, ME"
11775,Joe Foss Field,43.58194444,-96.74194444,"Sioux Falls, SD"
11776,Henry Post AAF,34.64972222,-98.40222222,"Fort Sill, OK"
11777,Fort Scott Municipal,37.79833333,-94.76944444,"Fort Scott, KS"
11778,Fort Smith Regional,35.33666667,-94.3675,"Fort Smith, AR"
11780,Fort Stockton Pecos County,30.91527778,-102.9127778,"Ft. Stockton, TX"
11784,Front Range,39.78416667,-104.5375,"Denver, CO"
11785,Godman AAF,37.90722222,-85.97166667,"Fort Knox, KY"
11786,Fortuna Ledge Airport,61.86833333,-162.0680556,"Fortuna Ledge, AK"
11789,Fort Worth Meacham International,32.81972222,-97.3625,"Dallas/Fort Worth, TX"
11790,Fulton County Airport-Brown Field,33.77916667,-84.52138889,"Atlanta, GA"
11794,Fullerton Municipal,33.87194444,-117.9797222,"Fullerton, CA"
11797,Osprey Lodge Airport,61.11638889,-155.3113889,"Osprey Lodge, AK"
11800,Sonora Municipal,30.58555556,-100.6486111,"Sonora, TX"
11801,Fallbrook Community Airpark,33.35416667,-117.2508333,"Fallbrook, CA"
11803,Wickenburg Municipal,33.97055556,-112.795,"Wickenburg, AZ"
11804,Othello Municipal,46.79416667,-119.08,"Othello, WA"
11805,Byerley,32.82583333,-91.18777778,"Lake Providence, LA"
11810,Big Sky Field,48.15361111,-104.5041667,"Culbertson, MT"
11811,Aurora State,45.24722222,-122.77,"Aurora, OR"
11812,Gansner Field,39.94388889,-120.9452778,"Quincy, CA"
11813,Donlin Creek Mine Airport,62.07194444,-158.2041667,"Donlin Creek Mine, AK"
11815,Rexburg-Madison County,43.83388889,-111.805,"Rexburg, ID"
11818,Kern Valley,35.72833333,-118.4197222,"Kernville, CA"
11819,Golden Creek Mine Airport,65.28333333,-153,"Golden Creek Mine, AK"
11820,Grace Harbor Airport,54.91666667,-132.9166667,"Grace Harbor, AK"
11821,Unuk River Airport,56.08333333,-131.9666667,"Unuk River, AK"
11822,Inigok,70.00388889,-153.0775,"Deadhorse, AK"
11823,Fort Wayne International,40.97833333,-85.19527778,"Fort Wayne, IN"
11824,Fort Worth NAS JRB/Carswell Field,32.76916667,-97.44166667,"Fort Worth, TX"
11825,Farewell Airport,62.50916667,-153.8902778,"Farewell, AK"
11826,Fort Worth Spinks,32.56527778,-97.30805556,"Fort Worth, TX"
11827,Fort Lauderdale Executive,26.19722222,-80.17083333,"Fort Lauderdale, FL"
11828,Bullen Point AFS,70.17277778,-146.8361111,"Kaktovik, AK"
11830,Frankfort Municipal,40.27333333,-86.56222222,"Clinton, IN"
11831,Forest City Municipal,43.23472222,-93.62416667,"Forest City, IA"
11833,Fort Yukon Airport,66.5725,-145.2463889,"Fort Yukon, AK"
11834,Drake Field,36.005,-94.17,"Fayetteville, AR"
11836,Barwick Lafayette,34.68861111,-85.29027778,"Lafayette, GA"
11837,West Georgia Regional - O V Gray Field,33.63166667,-85.15222222,"Carrollton, GA"
11838,Newnan Coweta County,33.31166667,-84.76972222,"Atlanta, GA"
11840,Northeast Alabama Regional,33.97277778,-86.08916667,"Gadsden, AL"
11842,Montgomery County Airpark,39.16833333,-77.16611111,"Gaithersburg, MD"
11844,Edward G. Pitka Sr.,64.73611111,-156.9375,"Galena, AK"
11845,Gambell Airport,63.76666667,-171.7327778,"Gambell, AK"
11856,Great Bend Municipal,38.34416667,-98.85916667,"Great Bend, KS"
11858,Galesburg Municipal,40.93805556,-90.43111111,"Galesburg, IL"
11859,Galbraith Lake Airport,68.47972222,-149.49,"Galbraith Lake, AK"
11862,Walter J. Koladza,42.18416667,-73.40333333,"Great Barrington, MA"
11865,Gillette Campbell County,44.34888889,-105.5394444,"Gillette, WY"
11867,Garden City Regional,37.9275,-100.7244444,"Garden City, KS"
11869,Grand Canyon National Park,35.95222222,-112.1469444,"Grand Canyon, AZ"
11870,Municipal,36.19138889,-82.81666667,"Greeneville, TN"
11871,Donaldson Field,34.75833333,-82.37638889,"Greenville, SC"
11873,Golden Horn Lodge Seaplane Base,59.74694444,-158.8747222,"Golden Horn Lodge, AK"
11875,Gardner Municipal,42.55,-72.01611111,"Gardner, MA"
11879,Dawson Community,47.13861111,-104.8072222,"Glendive, MT"
11880,Gladwin Zettel Memorial,43.97055556,-84.475,"Gladwin, MI"
11883,Delaware Coastal,38.6875,-75.35944444,"Georgetown, DE"
11884,Spokane International,47.61916667,-117.5352778,"Spokane, WA"
11885,Ganes Creek Airport,62.97555556,-156.5133333,"Ganes Creek, AK"
11893,South Big Horn County,44.51805556,-108.0830556,"Greybull, WY"
11894,Shelbyville Municipal,39.58305556,-85.80472222,"Shelbyville, IN"
11895,Malmstrom AFB Heliport,47.50472222,-111.1872222,"Great Falls, MT"
11896,Togiak Fish Airport,59.05,-160.2833333,"Togiak Fish, AK"
11898,Grand Forks International,47.94722222,-97.17388889,"Grand Forks, ND"
11899,Floyd Bennett Memorial,43.34111111,-73.61027778,"Glens Falls, NY"
11904,Georgetown County,33.31138889,-79.32027778,"Georgetown, SC"
11905,East Texas Regional,32.38388889,-94.71138889,"Longview, TX"
11908,Wokal Field/Glasgow International,48.2125,-106.6147222,"Glasgow, MT"
11921,Grand Junction Regional,39.1225,-108.5266667,"Grand Junction, CO"
11924,Gulkana Airport,62.155,-145.4544444,"Gulkana, AK"
11929,Renner Field,39.37055556,-101.6988889,"Goodland, KS"
11931,Greenville Mid Delta,33.48277778,-90.98555556,"Greenville, MS"
11938,Gaylord Regional,45.01305556,-84.70333333,"Gaylord, MI"
11939,Scholes International at Galveston,29.26527778,-94.86055556,"Galveston, TX"
11941,Golovin Airport,64.55055556,-163.0072222,"Golovin, AK"
11942,Glasgow Municipal,37.03166667,-85.95361111,"Glasgow, KY"
11946,Granite Mountain AS,65.40222222,-161.2813889,"Granite Mountain, AK"
11947,Greenville Downtown,34.84805556,-82.35,"Greenville, SC"
11952,Goodnews,59.11777778,-161.5736111,"Goodnews Bay, AK"
11953,Gainesville Regional,29.69,-82.27166667,"Gainesville, FL"
11959,Gold Beach Municipal,42.41527778,-124.425,"Gold Beach, OR"
11961,Groton-New London,41.33,-72.04527778,"New London/Groton, CT"
11971,Grand Prairie Municipal,32.69888889,-97.04694444,"Grand Prairie, TX"
11973,Gulfport-Biloxi International,30.40722222,-89.07,"Gulfport/Biloxi, MS"
11974,Grand Rapids/Itasca County-Gordon Newstrom Field,47.21027778,-93.51,"Grand Rapids, MN"
11975,Horning,40.73611111,-82.75277778,"Galion, OH"
11977,Green Bay Austin Straubel International,44.48472222,-88.12972222,"Green Bay, WI"
11978,Greenwood County,34.24861111,-82.15916667,"Greenwood, SC"
11979,Gray AAF,47.07916667,-122.5808333,"Tacoma, WA"
11980,Central Nebraska Regional,40.9675,-98.30972222,"Grand Island, NE"
11982,Robert Gray AAF,31.06722222,-97.82888889,"Killeen, TX"
11986,Gerald R. Ford International,42.88083333,-85.52277778,"Grand Rapids, MI"
11992,Seymour Johnson AFB,35.33944444,-77.96055556,"Goldsboro, NC"
11994,Goshen Municipal,41.52638889,-85.79416667,"Goshen, IN"
11995,Piedmont Triad International,36.10138889,-79.94111111,"Greensboro/High Point, NC"
11996,Greenville-Spartanburg International,34.89555556,-82.21888889,"Greer, SC"
11997,Gustavus Airport,58.42527778,-135.7075,"Gustavus, AK"
12003,Great Falls International,47.48277778,-111.3705556,"Great Falls, MT"
12007,Golden Triangle Regional,33.44833333,-88.59138889,"Columbus, MS"
12008,Georgetown Municipal,30.67888889,-97.67944444,"Georgetown, TX"
12012,Gunnison-Crested Butte Regional,38.53444444,-106.9316667,"Gunnison, CO"
12016,Guam International,13.48388889,144.7972222,"Guam, TT"
12018,Gallup Municipal,35.51111111,-108.7894444,"Gallup, NM"
12021,Grissom ARB,40.64805556,-86.15222222,"Peru, IN"
12024,Guymon Municipal,36.685,-101.5077778,"Guymon, OK"
12027,Gordonsville Municipal,38.15611111,-78.16583333,"Gordonville, VA"
12028,Lee Gilmer Memorial,34.2725,-83.83027778,"Gainesville, GA"
12029,Genesee County,43.03166667,-78.16972222,"Batavia, NY"
12031,Majors,33.06777778,-96.06527778,"Greenville, TX"
12032,Richards/Gebaur AFB,38.85083333,-94.55833333,"Grandview, MO"
12039,Greenwood/Leflore,33.49416667,-90.08472222,"Greenwood, MS"
12040,Gwinner-Roger Melroe Field,46.21833333,-97.64333333,"Gwinner, ND"
12041,Glenwood Springs Municipal,39.50611111,-107.3091667,"Glenwood Springs, CO"
12054,Phoenix Goodyear,33.42333333,-112.3752778,"Goodyear, AZ"
12055,Gary/Chicago International,41.61722222,-87.41444444,"Gary, IN"
12058,Marion County,34.12916667,-87.99444444,"Hamilton, AL"
12061,Havasupai Airport,36.21666667,-112.6666667,"Havasupai, AZ"
12062,Half Moon Bay Airport,37.51333333,-122.5011111,"Half Moon Bay, CA"
12068,Butler County Regional Hogan Field,39.36388889,-84.52194444,"Hamilton, OH"
12070,Capital City,40.21722222,-76.85138889,"Harrisburg, PA"
12076,Hanus Bay Airport,57.41666667,-135.0333333,"Hanus Bay, AK"
12078,Hattiesburg Bobby L. Chain Municipal,31.265,-89.25277778,"Hattiesburg, MS"
12079,Hobart Bay Airport,57.4,-133.4666667,"Hobart Bay, AK"
12083,Jim Hogg County,27.34944444,-98.73694444,"Hebbronville, TX"
12084,Hood Bay Airport,57.38194444,-134.3952778,"Hood Bay, AK"
12085,Howard County,32.30361111,-101.4338889,"Big Spring, TX"
12086,Shoal Cove Airport,55.45,-131.2833333,"Shoal Cove, AK"
12087,Holy Cross Airport,62.18833333,-159.775,"Holy Cross, AK"
12088,Hidden Falls Airport,57.21666667,-134.8833333,"Hidden Falls, AK"
12092,Dillingham,21.57944444,-158.1972222,"Mokuleia, HI"
12094,Yampa Valley,40.48111111,-107.2177778,"Hayden, CO"
12098,Herendeen Bay,55.80138889,-160.8991667,"Herendeen, AK"
12103,Hermiston Municipal,45.82833333,-119.2591667,"Hermiston, OR"
12106,Hardy-Anders Field Natchez-Adams County,31.61361111,-91.29722222,"Natchez, MS"
12108,Hartford Brainard,41.73666667,-72.64944444,"Hartford, CT"
12110,Mackall AAF,35.03666667,-79.4975,"Hoffman, NC"
12119,Hagerstown Regional-Richard A. Henson Field,39.70861111,-77.72638889,"Hagerstown, MD"
12122,Hogatza Airport,66.19166667,-155.6688889,"Hogatza, AK"
12124,Hilton Head Airport,32.22444444,-80.6975,"Hilton Head, SC"
12127,Jack Northrop Field/Hawthorne Municipal,33.92277778,-118.3352778,"Hawthorne, CA"
12128,Hiawatha Municipal,39.87916667,-95.52527778,"Hiawatha, KS"
12129,Range Regional,47.38666667,-92.83888889,"Hibbing, MN"
12130,Mount Washington Regional,44.3675,-71.54583333,"Whitefield, NH"
12131,Hill AFB,41.12388889,-111.9730556,"Ogden, UT"
12132,Lake Havasu City Airport,34.57111111,-114.3583333,"Lake Havasu City, AZ"
12134,Joint Base Pearl Harbor-Hickam,21.31777778,-157.9202778,"Honolulu, HI"
12136,Portland Hillsboro,45.54222222,-122.9508333,"Hillsboro, OR"
12140,Blytheville Municipal,35.94055556,-89.83083333,"Blytheville, AR"
12141,Healy River,63.8675,-148.9688889,"Healy, AK"
12147,Hawkins Field,32.33472222,-90.2225,"Jackson, MS"
12149,Hickory Regional,35.74111111,-81.38944444,"Hickory, NC"
12153,Wheeling Ohio County,40.175,-80.64638889,"Wheeling, WV"
12154,Hollister Municipal,36.89333333,-121.4102778,"Hollister, CA"
12155,Park Township,42.79583333,-86.16194444,"Holland, MI"
12156,Helena Regional,46.60666667,-111.9833333,"Helena, MT"
12163,Holloman AFB,32.85222222,-106.1091667,"Alamogordo, NM"
12165,Homeshore Airport,58.29444444,-135.3472222,"Homeshore, AK"
12166,Hemet-Ryan,33.73388889,-117.0225,"Hemet, CA"
12168,Billy Mitchell,35.23277778,-75.61777778,"Hatteras, NC"
12171,Hoonah Airport,58.09611111,-135.4088889,"Hoonah, AK"
12173,Honolulu International,21.31777778,-157.9202778,"Honolulu, HI"
12174,Hana Airport,20.79555556,-156.0144444,"Hana, HI"
12175,Haines Airport,59.24388889,-135.5236111,"Haines, AK"
12177,Lea County Regional,32.6875,-103.2172222,"Hobbs, NM"
12183,Holikachuk Airport,62.91055556,-159.5277778,"Holikachuk, AK"
12184,Homer Airport,59.645,-151.4858333,"Homer, AK"
12185,Huron Regional,44.38527778,-98.22861111,"Huron, SD"
12187,Campbell AAF,36.66861111,-87.49611111,"Hopkinsville, KY"
12190,Memorial Field,34.47805556,-93.09611111,"Hot Springs, AR"
12191,William P Hobby,29.64555556,-95.27888889,"Houston, TX"
12195,Hooper Bay Airport,61.52388889,-166.1466667,"Hooper Bay, AK"
12197,Westchester County,41.06694444,-73.7075,"White Plains, NY"
12198,Hampton Municipal,42.72361111,-93.22638889,"Hampton, IA"
12199,Princeville,22.20916667,-159.4455556,"Hanalei, HI"
12200,Bowerman,46.97111111,-123.9366667,"Hoquiam, WA"
12206,Valley International,26.22722222,-97.65527778,"Harlingen/San Benito, TX"
12207,Boone County,36.26138889,-93.15472222,"Harrison, AR"
12211,Henderson Executive,35.97277778,-115.1344444,"Las Vegas, NV"
12212,Hastings Municipal,40.60527778,-98.42777778,"Hastings, NE"
12214,Huslia Airport,65.69777778,-156.3513889,"Huslia, AK"
12215,Ingalls Field,37.95138889,-79.83388889,"Hot Springs, VA"
12216,Homestead ARB,25.48861111,-80.38361111,"Homestead, FL"
12217,Huntsville International-Carl T Jones Field,34.63722222,-86.775,"Huntsville, AL"
12220,Hawthorne Industrial,38.545,-118.6325,"Hawthorne, NV"
12222,East Hampton Airport,40.95944444,-72.25166667,"East Hampton, NY"
12223,Tri-State/Milton J. Ferguson Field,38.36861111,-82.56027778,"Ashland, WV"
12225,Redstone AAF,34.67861111,-86.68472222,"Huntsville, AL"
12226,Dr Hermenegildo Ortiz Quinones,18.13805556,-65.80083333,"Humacao, PR"
12228,Terre Haute International-Hulman Field,39.45138889,-87.3075,"Terre Haute, IN"
12232,Houlton International,46.12472222,-67.79222222,"Houlton, ME"
12233,Houma Terrebonne,29.56638889,-90.66055556,"Houma, LA"
12235,Hughes Airport,66.03916667,-154.2647222,"Hughes, AK"
12236,Hutchinson Municipal,38.06555556,-97.86055556,"Hutchinson, KS"
12243,Hopkinsville-Christian County,36.85694444,-87.455,"Hopkinsville, KY"
12244,Tweed New Haven,41.26388889,-72.88694444,"New Haven, CT"
12245,Havre City-County,48.54305556,-109.7622222,"Havre, MT"
12246,Hartsville Regional,34.40305556,-80.11916667,"Hartsville, SC"
12247,Hayward Executive,37.65888889,-122.1216667,"Hayward, CA"
12248,Hawk Inlet Airport,58.13333333,-134.75,"Hawk Inlet, AK"
12250,Barnstable Municipal-Boardman/Polando Field,41.66944444,-70.28027778,"Hyannis, MA"
12252,Hydaburg Seaplane Base,55.20666667,-132.8266667,"Hydaburg, AK"
12253,Hollis Seaplane Base,55.48194444,-132.6444444,"Hollis, AK"
12254,Sawyer County,46.02527778,-91.44305556,"Hayward, WI"
12255,Hays Regional,38.84222222,-99.27305556,"Hays, KS"
12259,Hazleton Regional,40.98666667,-75.995,"Hazleton, PA"
12260,Shenandoah Municipal,40.75166667,-95.41361111,"Shenandoah, IA"
12261,Webster City Municipal,42.43638889,-93.86888889,"Webster City, IA"
12262,Red Oak Municipal,41.01083333,-95.25888889,"Red Oak, IA"
12263,McConnell AFB,37.62305556,-97.2675,"Wichita, KS"
12264,Washington Dulles International,38.9475,-77.46,"Washington, DC"
12265,Niagara Falls International,43.1075,-78.94583333,"Niagara Falls, NY"
12266,George Bush Intercontinental/Houston,29.98444444,-95.34138889,"Houston, TX"
12268,Bob Baker Memorial,66.97583333,-160.4366667,"Kiana, AK"
12278,Wichita Dwight D Eisenhower National,37.65,-97.43305556,"Wichita, KS"
12279,Icy Bay Airport,59.96888889,-141.6616667,"Icy Bay, AK"
12280,Idaho Falls Regional,43.51361111,-112.0708333,"Idaho Falls, ID"
12281,Indiana County,40.63111111,-79.10166667,"Indiana, PA"
12283,Independence Municipal,37.15805556,-95.77888889,"Independence, KS"
12294,Igiugig Airport,59.32416667,-155.9016667,"Igiugig, AK"
12297,Kingman Airport,35.25944444,-113.9380556,"Kingman, AZ"
12303,Horace Williams,35.935,-79.06583333,"Chapel Hill, NC"
12305,Rantoul National Aviation Center,40.29361111,-88.1425,"Rantoul, IL"
12306,Lewis University,41.60805556,-88.09611111,"Chicago/Romeoville, IL"
12307,De Kalb Taylor Municipal,41.93388889,-88.70555556,"De Kalb, IL"
12308,Logan County,40.15861111,-89.335,"Lincoln, IL"
12310,Jacksonville Municipal,39.77472222,-90.23833333,"Jacksonville, IL"
12312,Wilkes County,36.22361111,-81.09861111,"Wilkesboro, NC"
12314,Greater Kankakee,41.07138889,-87.84638889,"Kankakee, IL"
12315,Nikolski AS,52.94166667,-168.8491667,"Nikolski, AK"
12317,Ankeny Regional,41.69138889,-93.56638889,"Ankeny, IA"
12319,Skylark Field,31.08583333,-97.68638889,"Killeen, TX"
12320,New Castle,39.67861111,-75.60666667,"Wilmington, DE"
12321,Iliamna Airport,59.75555556,-154.9177778,"Iliamna, AK"
12322,Willmar Municipal,45.11694444,-95.12944444,"Willmar, MN"
12323,Wilmington International,34.27111111,-77.90277778,"Wilmington, NC"
12324,Wilmington Air Park,39.42805556,-83.79222222,"Wilmington, OH"
12332,Imperial Municipal,40.51027778,-101.6202778,"Imperial, NE"
12333,Immokalee Regional,26.43388889,-81.40138889,"Immokalee, FL"
12335,Ford,45.81833333,-88.11444444,"Iron Mountain/Kingsfd, MI"
12336,De Kalb County,41.30722222,-85.06444444,"Auburn, IN"
12337,Indianapolis Executive,40.03055556,-86.25138889,"Indianapolis, IN"
12339,Indianapolis International,39.71722222,-86.29472222,"Indianapolis, IN"
12343,Falls International Einarson Field,48.56555556,-93.40222222,"International Falls, MN"
12347,Creech AFB,36.58722222,-115.6733333,"Indian Springs, NV"
12348,Smith Reynolds,36.13361111,-80.22194444,"Winston-Salem, NC"
12351,Winslow-Lindbergh Regional,35.02166667,-110.7230556,"Winslow, AZ"
12358,Iowa City Municipal,41.63972222,-91.54805556,"Iowa City, IA"
12363,Imperial County,32.83416667,-115.5788889,"El Centro, CA"
12365,Williamsport Regional,41.23833333,-76.93555556,"Williamsport, PA"
12370,Circle City,65.82805556,-144.0761111,"Circle, AK"
12375,Kirksville Regional,40.09333333,-92.545,"Kirksville, MO"
12378,Sturgis Airport,41.8,-85.41666667,"Sturgis, MI"
12379,Roy E. Ray,30.45527778,-88.21111111,"Bayou La Batre, AL"
12387,Isabel Pass Airport,63.5,-145.0333333,"Isabel Pass, AK"
12388,Kissimmee Gateway,28.28972222,-81.43694444,"Orlando, FL"
12389,Sloulin Field International,48.17805556,-103.6422222,"Williston, ND"
12390,Kinston Regional Jetport at Stallings Field,35.33138889,-77.60888889,"Kinston, NC"
12391,Long Island MacArthur,40.79527778,-73.10027778,"Islip, NY"
12392,Schoolcraft County,45.97444444,-86.17166667,"Manistique, MI"
12394,Wiscasset Airport,43.96138889,-69.7125,"Wiscasset, ME"
12396,Alexander Field South Wood County,44.36055556,-89.83805556,"Wisconsin Rapids, WI"
12397,Ithaca Tompkins Regional,42.49138889,-76.45861111,"Ithaca/Cortland, NY"
12402,Hilo International,19.72027778,-155.0483333,"Hilo, HI"
12412,Gogebic-Iron County,46.5275,-90.13138889,"Ironwood, MI"
12415,West Houston,29.81805556,-95.6725,"Houston, TX"
12436,Inyokern Airport,35.65861111,-117.8294444,"Inyokern, CA"
12441,Jackson Hole,43.60722222,-110.7377778,"Jackson, WY"
12445,Perimeter Mall Helipad,33.765,-84.41777778,"Atlanta, GA"
12448,Jackson Medgar Wiley Evers International,32.31111111,-90.07583333,"Jackson/Vicksburg, MS"
12449,Beaver Ruin,33.93333333,-84.15,"Atlanta, GA"
12451,Jacksonville International,30.49416667,-81.68777778,"Jacksonville, FL"
12452,Boston City Heliport,42.33333333,-71.25,"Boston, MA"
12454,Commerce Business Park Heliport,33.98666667,-118.1605556,"Commerce, CA"
12455,Jonesboro Municipal,35.83166667,-90.64638889,"Jonesboro, AR"
12457,China Basin Heliport,37.8,-122.4666667,"San Francisco, CA"
12458,Oakland Convention Center Heliport,37.80555556,-122.275,"Oakland, CA"
12460,New Century Aircenter,38.83083333,-94.89027778,"Olathe, KS"
12462,Grant County Regional/Ogilvie Field,44.40277778,-118.9677778,"John Day, OR"
12463,Downtown Heliport,32.76666667,-97.31666667,"Dallas/Fort Worth, TX"
12467,Miami Downtown Heliport,25.76666667,-80.18333333,"Miami, FL"
12469,Minneapolis Heliport,44.98277778,-93.26833333,"Minneapolis, MN"
12470,Houston Central Business District Heliport,29.76666667,-95.33333333,"Houston, TX"
12474,Jefferson City Memorial,38.59111111,-92.15611111,"Jefferson City, MO"
12478,John F. Kennedy International,40.64,-73.77861111,"New York, NY"
12479,Northeast Ohio Regional,41.77805556,-80.69555556,"Jefferson, OH"
12483,Grand Canyon Heliport,35.96666667,-112.1333333,"Grand Canyon, AZ"
12484,Williamsburg-Jamestown,37.23916667,-76.71611111,"Williamsburg, VA"
12485,Galleria,33.58333333,-84.46666667,"Atlanta, GA"
12487,Transco Tower Galleria Heliport,29.73666667,-95.45916667,"Houston, TX"
12490,Island Heliport,40.74444444,-73.60833333,"Garden City, NY"
12492,Kapalua Airport,20.96305556,-156.6730556,"Kapalua, HI"
12494,Chautauqua County/Jamestown,42.15333333,-79.25805556,"Jamestown, NY"
12495,Cambridge Airport,42.28333333,-71.13333333,"Cambridge, MA"
12497,Civic Financial Center Heliport,34.02444444,-117.9591667,"City of Industry, CA"
12508,Cherokee County,31.86944444,-95.2175,"Jacksonville, TX"
12509,Quartz Creek,60.48416667,-149.7227778,"Cooper Lodge, AK"
12511,Joplin Regional,37.15194444,-94.49833333,"Joplin, MO"
12513,Astrodome,29.68333333,-95.4,"Houston, TX"
12515,Marin County Heliport,37.87861111,-122.5097222,"San Francisco, CA"
12518,Downtown Heliport,44.16388889,-94.00416667,"Mankato, MN"
12519,Jamestown Regional,46.92972222,-98.67805556,"Jamestown, ND"
12522,Newport Beach Airport,33.61388889,-117.8897222,"Newport Beach, CA"
12523,Juneau International,58.35472222,-134.5783333,"Juneau, AK"
12527,Centerport Heliport,33.66666667,-117.8666667,"Santa Ana, CA"
12543,Park Ten Helipad,29.50861111,-95.05027778,"Houston, TX"
12544,Concord Regional,35.38777778,-80.70916667,"Cabarrus, NC"
12545,West 30th Street Heliport,40.75444444,-74.0075,"New York, NY"
12546,Downtown Manhattan/Wall Street Heliport,40.70111111,-74.00916667,"New York, NY"
12547,Appache Heliport,44.00138889,-92.48055556,"Rochester, MN"
12548,East 60th Street Heliport,40.8,-73.96666667,"New York, NY"
12549,Kalaeloa,21.30722222,-158.0702778,"Kapolei, HI"
12553,Jose Aponte de la Torre,18.245,-65.64333333,"Ceiba, PR"
12554,Juneau Seaplane Base,58.30166667,-134.4244444,"Juneau, AK"
12556,Crossroads Heliport,45.55,-94.2,"St. Cloud, MN"
12559,John Murtha Johnstown-Cambria County,40.31555556,-78.83472222,"Johnstown, PA"
12571,Southern Wisconsin Regional,42.62027778,-89.04166667,"Beloit/Janesville, WI"
12573,Westchase Heliport,29.73638889,-95.5475,"Houston, TX"
12574,John C Tune,36.18305556,-86.88638889,"Nashville, TN"
12576,Jackson County-Reynolds Field,42.26055556,-84.46055556,"Jackson, MI"
12579,James H Easom Field,32.31194444,-89.13555556,"Newton, MS"
12580,Orange Municipal,42.57,-72.28861111,"Orange, MA"
12581,Stanley Municipal,48.30083333,-102.4063889,"Stanley, ND"
12583,Trading Bay Production,60.81555556,-151.7988889,"Trading Bay, AK"
12585,Chamberlain Municipal,43.76611111,-99.32111111,"Chamberlain, SD"
12587,Portland Municipal,36.59277778,-86.47694444,"Portland, TN"
12588,Sky Harbor,46.72194444,-92.04333333,"Duluth, MN"
12589,Cloquet Carlton County,46.70111111,-92.50361111,"Cloquet, MN"
12590,San Clemente Island Nalf,33.02277778,-118.5886111,"San Clemente Island, CA"
12591,Hog River Airport,66.17611111,-155.6847222,"Hog River, AK"
12592,Quincy Municipal,47.21166667,-119.8397222,"Quincy, WA"
12593,American Falls Airport,42.79722222,-112.8252778,"American Falls, ID"
12594,Prospect State,42.7425,-122.4888889,"Prospect, OR"
12595,Brooksville Tampa Bay Regional,28.47361111,-82.45555556,"Brooksville, FL"
12596,Laurel Municipal,45.70444444,-108.7594444,"Laurel, MT"
12598,Arlington Municipal,32.66388889,-97.09416667,"Arlington, TX"
12599,William H. Morse State,42.89111111,-73.24611111,"Bennington, VT"
12600,North Little Rock Municipal,34.83305556,-92.25416667,"Little Rock, AR"
12601,Middleton Field,31.415,-87.04333333,"Evergreen, AL"
12602,Angwin-Parrett Field,38.58,-122.4355556,"Angwin, CA"
12603,Idaho County,45.9425,-116.1233333,"Grangeville, ID"
12605,Russellville-Logan County,36.8,-86.81027778,"Russellville, KY"
12610,Kake Seaplane Base,56.97333333,-133.9438889,"Kake, AK"
12615,Kaltag Airport,64.31888889,-158.7413889,"Kaltag, AK"
12621,Birch Creek Airport,66.27444444,-145.8180556,"Birch Creek, AK"
12622,Bell Island Hot Springs Seaplane Base,55.92944444,-131.57,"Bell Island, AK"
12624,Klag Bay Airport,57.64472222,-136.0930556,"Klag Bay, AK"
12633,Coffman Cove Seaplane Base,56.03333333,-132.9166667,"Coffman Cove, AK"
12635,Chignik Bay Airport,56.31138889,-158.3733333,"Chignik Bay, AK"
12638,Chignik Lagoon Airport,56.31083333,-158.5344444,"Chignik Lagoon, AK"
12639,Chernofski Harbor,53.4,-167.55,"Chernofski, AK"
12641,Chignik Lake,56.25555556,-158.7777778,"Chignik, AK"
12642,Colorado Creek Airport,63.57111111,-156.0052778,"Colorado Creek, AK"
12647,Kodiak Municipal,57.80583333,-152.3738889,"Kodiak, AK"
12649,Nanwalek Airport,59.35222222,-151.9252778,"Nanwalek, AK"
12652,Kenmore Air Harbor,47.75472222,-122.2591667,"Kenmore, WA"
12653,Ekwok Airport,59.35694444,-157.4711111,"Ekwok, AK"
12661,Ocean Reef Club,25.32527778,-80.27472222,"Key Largo, FL"
12663,False Pass Airport,54.84777778,-163.4072222,"False Pass, AK"
12671,Koliganek Airport,59.72666667,-157.2602778,"Koliganek, AK"
12676,Grayling Airport,62.89222222,-160.0663889,"Grayling, AK"
12677,Glacier Creek Airport,61.455,-142.3808333,"Glacier Creek, AK"
12686,Ivanof Bay Seaplane Base,55.9,-159.4833333,"Ivanof Bay, AK"
12704,Koyuk Alfred Adams,64.93944444,-161.1541667,"Koyuk, AK"
12705,Kitoi Bay Airport,58.19166667,-152.35,"Kitoi Bay, AK"
12708,Kongiganak Airport,59.96166667,-162.8805556,"Kongiganak, AK"
12709,Akiachak Airport,60.91388889,-161.4933333,"Akiachak, AK"
12711,Kalakaket Creek AS,64.42444444,-156.8433333,"Kalakaket, AK"
12712,Karluk Lake Seaplane Base,57.36777778,-154.0252778,"Karluk Lake, AK"
12716,Ekuk Airport,58.81111111,-158.5588889,"Ekuk, AK"
12719,Kalskag Airport,61.53583333,-160.3455556,"Kalskag, AK"
12720,Levelock Airport,59.12694444,-156.86,"Levelock, AK"
12721,Larsen Bay Airport,57.535,-153.9766667,"Larsen Bay, AK"
12723,Kelp Bay Airport,57.55,-134.8666667,"Kelp Bay, AK"
12725,Southwest Washington Regional,46.11805556,-122.8983333,"Kelso, WA"
12728,Klawock Airport,55.57916667,-133.0761111,"Klawock, AK"
12737,Manokatak Seaplane Base,58.98166667,-159.0566667,"Manokotak, AK"
12743,Moser Bay Airport,57.02638889,-154.1436111,"Moser Bay, AK"
12745,Kanab Municipal,37.01111111,-112.5311111,"Kanab, UT"
12748,Kokhanok Airport,59.43333333,-154.8025,"Kokhanok, AK"
12753,Kennett Memorial,36.22583333,-90.03666667,"Kennett, MO"
12755,New Stuyahok Airport,59.45166667,-157.3730556,"New Stuyahok, AK"
12758,Kona International Airport at Keahole,19.73888889,-156.0455556,"Kona, HI"
12769,Kotlik Airport,63.03055556,-163.5327778,"Kotlik, AK"
12771,Olga Bay Seaplane Base,57.16222222,-154.2275,"Olga Bay, AK"
12772,Ouzinkie Airport,57.94222222,-152.465,"Ouzinkie, AK"
12773,Point Baker Airport,56.35,-133.6166667,"Point Baker, AK"
12774,Port Clarence CGS,65.25333333,-166.8575,"Port Clarence, AK"
12775,Pauloff Harbor Airport,54.45,-162.6833333,"Pauloff Harbor, AK"
12777,Parks Seaplane Base,57.43361111,-153.9,"Parks, AK"
12778,Napamute Airport,61.53138889,-158.6408333,"Napamute, AK"
12779,Kipnuk Airport,59.93166667,-164.0283333,"Kipnuk, AK"
12782,Port Williams Airport,58.43333333,-152.5833333,"Port Williams, AK"
12784,Perryville Airport,55.90666667,-159.1608333,"Perryville, AK"
12785,Port Bailey Airport,57.93333333,-153.0333333,"Port Bailey, AK"
12786,Akutan Airport,54.13333333,-165.7833333,"Akutan, AK"
12796,Coffey County,38.3025,-95.725,"Burlington, KS"
12807,St. Mary's Airport,62.06083333,-163.3019444,"St. Mary's, AK"
12812,Federal No.1,56.24444444,-160.3863889,"Sandy River, AK"
12815,Thorne Bay Seaplane Base,55.68833333,-132.535,"Thorne Bay, AK"
12819,Ketchikan International,55.35416667,-131.7111111,"Ketchikan, AK"
12822,Brevig Mission Airport,65.33138889,-166.4658333,"Brevig Mission, AK"
12831,Kasigluk Airport,60.87333333,-162.5244444,"Kasigluk, AK"
12837,Kugururok River Airport,68.30694444,-161.4,"Kugururok River, AK"
12841,King Cove Airport,55.11638889,-162.2661111,"King Cove, AK"
12844,Kivalina Airport,67.73611111,-164.5636111,"Kivalina, AK"
12847,Waterfall Seaplane Base,55.29722222,-133.2405556,"Waterfall, AK"
12851,Kwigillingok Airport,59.87555556,-163.1680556,"Kwigillingok, AK"
12853,Quinhagak Airport,59.755,-161.8452778,"Quinhagak, AK"
12854,West Point Village,57.76694444,-153.55,"West Point, AK"
12855,Kwethluk Airport,60.79027778,-161.4436111,"Kwethluk, AK"
12857,Kasaan Seaplane Base,55.53777778,-132.3958333,"Kasaan, AK"
12859,Stuart Powell Field,37.5775,-84.76944444,"Danville, KY"
12860,Sturgis Municipal,37.54166667,-87.95444444,"Sturgis, KY"
12861,Mount Sterling - Montgomery County,38.05805556,-83.97944444,"Mount Sterling, KY"
12862,Henderson City - County,37.80777778,-87.68583333,"Henderson, KY"
12863,Madisonville Regional,37.35583333,-87.39833333,"Madisonville, KY"
12865,Yankee Creek 2,63.00194444,-156.3672222,"Yankee Creek, AK"
12866,Karluk Airport,57.56611111,-154.4538889,"Karluk, AK"
12868,Koyukuk Airport,64.87583333,-157.7305556,"Koyukuk, AK"
12869,Zachar Bay Airport,57.55,-153.75,"Zachar Bay, AK"
12870,Kizhuyak Airport,57.58305556,-153.15,"Kizhuyak, AK"
12873,Lamar Municipal,38.06972222,-102.6886111,"Lamar, CO"
12878,Purdue University,40.41222222,-86.93694444,"Lafayette, IN"
12882,Lakeland Linder Regional,27.98888889,-82.01861111,"Lakeland, FL"
12883,Los Alamos Airport,35.87972222,-106.2686111,"Los Alamos, NM"
12884,Capital Region International,42.77861111,-84.58611111,"Lansing, MI"
12888,Laramie Regional,41.31194444,-105.675,"Laramie, WY"
12889,McCarran International,36.08,-115.1522222,"Las Vegas, NV"
12891,Lawton-Fort Sill Regional,34.56777778,-98.41666667,"Lawton/Fort Sill, OK"
12892,Los Angeles International,33.9425,-118.4072222,"Los Angeles, CA"
12896,Lubbock Preston Smith International,33.66361111,-101.8205556,"Lubbock, TX"
12898,Arnold Palmer Regional,40.27305556,-79.41027778,"Latrobe, PA"
12899,North Platte Regional Airport Lee Bird Field,41.12611111,-100.6836111,"North Platte, NE"
12902,Liberal Mid-America Regional,37.04388889,-100.96,"Liberal, KS"
12906,Lumberton Regional,34.60972222,-79.05944444,"Lumberton, NC"
12915,Lake Charles Regional,30.12611111,-93.22333333,"Lake Charles, LA"
12916,Laconia Municipal,43.57305556,-71.41777778,"Laconia, NH"
12917,Rickenbacker International,39.81388889,-82.92777778,"Columbus, OH"
12925,Linden Airport,40.6175,-74.24444444,"Linden, NJ"
12927,Mason County,43.9625,-86.40805556,"Ludington, MI"
12932,Lebanon Municipal,43.62611111,-72.30416667,"Lebanon-Hanover, NH"
12934,Leesburg International,28.82277778,-81.80833333,"Leesburg, FL"
12944,Auburn Lewiston Municipal,44.04833333,-70.28361111,"Lewiston/Auburn, ME"
12945,Blue Grass,38.03666667,-84.60861111,"Lexington, KY"
12947,Langley AFB,37.08277778,-76.36055556,"Newport News/Hampton, VA"
12948,Angelina County,31.23416667,-94.75,"Lufkin, TX"
12951,Lafayette Regional Paul Fournet Field,30.205,-91.98777778,"Lafayette, LA"
12953,LaGuardia,40.77722222,-73.8725,"New York, NY"
12954,Long Beach Airport,33.8175,-118.1513889,"Long Beach, CA"
12955,LaGrange-Callaway,33.00888889,-85.0725,"LaGrange, GA"
12956,La Grande/Union County,45.28972222,-118.0063889,"La Grande, OR"
12961,Longmont Municipal,40.16166667,-105.1613889,"Longmont, CO"
12965,Logan Cache,41.79138889,-111.8516667,"Logan, UT"
12968,Lost Harbor Airport,54.22611111,-165.6111111,"Lost Harbor, AK"
12971,Fairfield County,39.75555556,-82.65722222,"Lancaster, OH"
12974,William T. Piper Memorial,41.13583333,-77.42222222,"Lock Haven, PA"
12976,La Junta Municipal,38.05,-103.5097222,"La Junta, CO"
12979,Limon Municipal,39.27472222,-103.6658333,"Limon, CO"
12982,Lihue Airport,21.97611111,-159.3388889,"Lihue, HI"
12983,Long Island Airport,54.9,-132.75,"Long Island, AK"
12992,Bill and Hillary Clinton Nat Adams Field,34.72944444,-92.22472222,"Little Rock, AR"
12993,Livengood Airport,65.53111111,-148.5411111,"Livengood, AK"
12995,Wright AAF/Midcoast Regional,31.88833333,-81.56166667,"Hinesville, GA"
12996,Loring International,46.95055556,-67.88583333,"Limestone, ME"
12999,Brazoria County,29.03833333,-95.45694444,"Lake Jackson, TX"
13001,Floyd W Jones Lebanon,37.64833333,-92.6525,"Lebanon, MO"
13002,Lake Union Terminal,47.62888889,-122.3386111,"Seattle, WA"
13003,Kulik Lake Airport,58.965,-155.0955556,"Kulik Lake, AK"
13008,Lake Placid Airport,44.26444444,-73.96194444,"Lake Placid, NY"
13009,Lake County,42.16111111,-120.3991667,"Lakeview, OR"
13015,South Jersey Regional,39.94277778,-74.84583333,"Mount Holly, NJ"
13016,Lake Minchumina Airport,63.88583333,-152.3019444,"Lake Minchumina, AK"
13023,Louisville Winston County,33.14611111,-89.0625,"Louisville, MS"
13024,Crater Lake Klamath Regional,42.15611111,-121.7330556,"Klamath Falls, OR"
13026,Hunt Field,42.81555556,-108.7283333,"Lander, WY"
13028,Lonely AS,70.91083333,-153.2422222,"Lonely, AK"
13029,Lincoln Airport,40.85083333,-96.75916667,"Lincoln, NE"
13030,Kings Land O' Lakes,46.15416667,-89.21194444,"Land O' Lakes, WI"
13031,Lonesome Pine,36.9875,-82.53,"Wise, VA"
13032,Lancaster Airport,40.12222222,-76.29444444,"Lancaster, PA"
13033,Lanett Municipal,32.81194444,-85.22972222,"Lanett, AL"
13034,Lanai Airport,20.78555556,-156.9513889,"Lanai, HI"
13039,Derby Field,40.06638889,-118.565,"Lovelock, NV"
13044,Bowman Field,38.22805556,-85.66361111,"Louisville, KY"
13046,London-Corbin Airport-Magee Field,37.08694444,-84.0775,"London/Corbin, KY"
13049,Lompoc Airport,34.66555556,-120.4675,"Lompoc, CA"
13052,La Porte Municipal,41.5725,-86.73444444,"La Porte, IN"
13055,Lopez Island Airport,48.48388889,-122.9377778,"Lopez Island, WA"
13057,Little Port Walter Airport,56.38333333,-134.8333333,"Little Port Walter, AK"
13058,Pickens County,34.81,-82.70277778,"Pickens, SC"
13061,Laredo International,27.54416667,-99.46166667,"Laredo, TX"
13063,Little Rock AFB,34.9175,-92.145,"Jacksonville, AR"
13064,Loring Airport,55.60166667,-131.635,"Loring, AK"
13069,Larson AFB,47.14305556,-119.2402778,"Moses Lake, WA"
13070,Sharpe AFF,37.83666667,-121.2722222,"Lathrop, CA"
13072,Las Cruces International,32.28944444,-106.9219444,"Las Cruces, NM"
13076,La Crosse Regional,43.87916667,-91.25666667,"La Crosse, WI"
13077,Lawson AAF,32.33166667,-84.98722222,"Columbus, GA"
13080,Los Banos Municipal,37.06388889,-120.8697222,"Los Banos, CA"
13087,Nellis AFB,36.23611111,-115.0341667,"Las Vegas, NV"
13097,Altus AFB,34.66638889,-99.26805556,"Altus, OK"
13102,Luke AFB,33.535,-112.3830556,"Phoenix, AZ"
13105,Cincinnati Municipal Lunken Field,39.10333333,-84.41861111,"Cincinnati, OH"
13106,Hesler-Noble Field,31.67305556,-89.17277778,"Laurel, MS"
13109,Kalaupapa Airport,21.21111111,-156.9736111,"Kalaupapa, HI"
13111,Cape Lisburne LRRS,68.875,-166.1111111,"Cape Lisburne, AK"
13115,Lime Village Airport,61.35916667,-155.4402778,"Lime Village, AK"
13117,Livermore Municipal,37.69333333,-121.8202778,"Livermore, CA"
13118,Livingston Airport,45.66666667,-110.5666667,"Livingston, MT"
13120,Las Vegas Municipal,35.65416667,-105.1425,"Las Vegas, NM"
13121,Greenbrier Valley,37.85833333,-80.39944444,"Lewisburg, WV"
13122,Lawrence Municipal,39.01111111,-95.21638889,"Lawrence, KS"
13123,Lawrenceburg-Lawrence County,35.23444444,-87.25805556,"Lawrenceburg, TN"
13124,Wells Municipal/Harriet Field,41.11722222,-114.9222222,"Wells, NV"
13125,Lawrence Municipal,42.71722222,-71.12333333,"Lawrence, MA"
13127,Lewiston Nez Perce County,46.37444444,-117.0152778,"Lewiston, ID"
13128,Lewistown Municipal,47.04916667,-109.4666667,"Lewistown, MT"
13129,Lawrenceville-Vincennes International,38.76416667,-87.60555556,"Lawrenceville, IL"
13132,Jim Kelly Field,40.79055556,-99.77583333,"Lexington, NE"
13135,Lake County,39.21944444,-106.3163889,"Leadville, CO"
13139,Lynchburg Regional/Preston Glenn Field,37.32666667,-79.20111111,"Lynchburg, VA"
13144,Ely Municipal,47.82388889,-91.82944444,"Ely, MN"
13151,Gwinnett County - Briscoe Field,33.97805556,-83.9625,"Lawrenceville, GA"
13152,Katama Airpark,41.35833333,-70.52444444,"Edgartown, MA"
13155,Macon Downtown,32.82166667,-83.56194444,"Macon, GA"
13157,Madera Municipal,36.98638889,-120.1125,"Madera, CA"
13158,Midland International,31.9425,-102.2019444,"Midland/Odessa, TX"
13173,Malden Regional,36.59833333,-89.9925,"Malden, MO"
13176,Eugenio Maria de Hostos,18.25555556,-67.14833333,"Mayaguez, PR"
13182,Manistee County-Blacker,44.2725,-86.24694444,"Manistee/Ludington, MI"
13184,MBS International,43.53305556,-84.07972222,"Saginaw/Bay City/Midland, MI"
13188,Omar N Bradley,39.46333333,-92.42638889,"Moberley, MO"
13191,McComb/Pike County/John E. Lewis Field,31.17833333,-90.47194444,"McComb, MS"
13192,McClellan Airfield,38.66777778,-121.4005556,"Sacramento, CA"
13193,Mackinac Island Airport,45.865,-84.63722222,"Mackinac Island, MI"
13194,Merced Regional/Macready Field,37.28472222,-120.5138889,"Merced, CA"
13195,Macdill AFB,27.84944444,-82.52111111,"Tampa, FL"
13196,McGrath Airport,62.95277778,-155.6069444,"McGrath, AK"
13198,Kansas City International,39.2975,-94.71388889,"Kansas City, MO"
13200,McCook Ben Nelson Regional,40.20638889,-100.5919444,"McCook, NE"
13201,Denali,63.645,-148.7980556,"McKinley Park, AK"
13203,Middle Georgia Regional,32.69277778,-83.64916667,"Macon, GA"
13204,Orlando International,28.42944444,-81.30888889,"Orlando, FL"
13211,Mason City Municipal,43.15777778,-93.33111111,"Mason City, IA"
13214,Martindale AHP,29.43138889,-98.37777778,"San Antonio, TX"
13217,Midland Airpark,32.03666667,-102.1016667,"Midland/Odessa, TX"
13219,Taylor County,45.10138889,-90.30027778,"Medford, WI"
13221,Southern Illinois,37.77805556,-89.25194444,"Carbondale, IL"
13223,Madras Municipal,44.67027778,-121.1552778,"Madras, OR"
13226,Middleton Island Airport,59.45,-146.3072222,"Middleton Island, AK"
13228,Medfra Airport,63.10694444,-154.7166667,"Medfra, AK"
13230,Harrisburg International,40.19305556,-76.7625,"Harrisburg, PA"
13232,Chicago Midway International,41.78583333,-87.7525,"Chicago, IL"
13234,Sand Island Field,28.20444444,-177.3786111,"Midway Island, TT"
13236,Steven A. Bean Municipal,44.99194444,-70.66472222,"Rangeley, ME"
13241,Key Field,32.3325,-88.75194444,"Meridian, MS"
13242,Port Meadville,41.62666667,-80.21472222,"Meadville, PA"
13244,Memphis International,35.0425,-89.97666667,"Memphis, TN"
13246,Dare County Regional,35.91888889,-75.69555556,"Manteo, NC"
13249,Castle,37.38055556,-120.5680556,"Atwater, CA"
13251,Minden-Tahoe,39.00055556,-119.7511111,"Minden, NV"
13255,Mansfield Lahm Regional,40.82138889,-82.51666667,"Mansfield, OH"
13256,McAllen Miller International,26.17583333,-98.23861111,"Mission/McAllen/Edinburg, TX"
13259,Mesquite Airport,36.83305556,-114.0558333,"Mesquite, NV"
13260,Marshfield Municipal,44.63694444,-90.18944444,"Marshfield, WI"
13264,Rogue Valley International - Medford,42.37416667,-122.8736111,"Medford, OR"
13268,Accomack County,37.64694444,-75.76111111,"Melfa, VA"
13271,Michigan City Municipal-Phillips Field,41.70333333,-86.82111111,"Michigan City, IN"
13273,Dobbins ARB,33.91444444,-84.51416667,"Marietta, GA"
13275,Orange County,41.51,-74.26472222,"Montgomery, NY"
13277,Montgomery Regional,32.30055556,-86.39388889,"Montgomery, AL"
13280,Moultrie/Thomasville Airport,31.06944444,-83.80277778,"Moultrie/Thomasville, GA"
13282,Morgantown Municipal-Walter L. Bill Hart Field,39.64305556,-79.91638889,"Morgantown, WV"
13283,Dayton-Wright Brothers,39.58888889,-84.22472222,"Dayton, OH"
13287,Mitchell Municipal,43.77472222,-98.03861111,"Mitchell, SD"
13290,Manhattan Regional,39.14111111,-96.67166667,"Manhattan/Ft. Riley, KS"
13291,Marshall Memorial Municipal,39.09555556,-93.20277778,"Marshall, MO"
13292,Minchumina Airport,63.88583333,-152.3019444,"Minchumina, AK"
13295,Sacramento Mather,38.55527778,-121.2972222,"Sacramento, CA"
13296,Manchester-Boston Regional,42.93277778,-71.43583333,"Manchester, NH"
13297,Mojave Air and Space Port,35.05888889,-118.1505556,"Mojave, CA"
13300,Greenville Municipal,43.14222222,-85.25388889,"Greenville, MI"
13301,West Michigan Regional,42.74277778,-86.10777778,"Holland, MI"
13302,Livingston County Spencer J. Hardy,42.62944444,-83.98222222,"Howell, MI"
13303,Miami International,25.79527778,-80.29,"Miami, FL"
13304,Minot AFB,48.41583333,-101.3580556,"Minot, ND"
13305,Crystal,45.06194444,-93.35388889,"Minneapolis, MN"
13307,Delaware County Regional,40.2425,-85.39583333,"Muncie/Anderson/Newcastle, IN"
13314,Miami Regional,36.90916667,-94.8875,"Miami, OK"
13316,Millard,41.19611111,-96.11222222,"Omaha, NE"
13319,Shafter - Minter Field,35.5075,-119.1922222,"Shafter, CA"
13321,Millville Municipal,39.36777778,-75.07222222,"Millville, NJ"
13322,Marshalltown Municipal,42.11277778,-92.91777778,"Marshalltown, IA"
13335,Jackson Airport,43.63333333,-94.98333333,"Jackson, MN"
13338,Ocean County,39.92611111,-74.29555556,"Toms River, NJ"
13341,Charles B. Wheeler Downtown,39.12305556,-94.59277778,"Kansas City, MO"
13342,General Mitchell International,42.94694444,-87.89694444,"Milwaukee, WI"
13344,Muskegon County,43.16888889,-86.2375,"Muskegon, MI"
13347,Molokai,21.15277778,-157.0963889,"Hoolehua, HI"
13348,McKellar-Sipes Regional,35.6,-88.91555556,"Jackson, TN"
13350,Davis Field,35.65777778,-95.36166667,"Muskogee, OK"
13354,Mankato Regional,44.22277778,-93.91944444,"Mankato, MN"
13360,Melbourne International,28.10277778,-80.64527778,"Melbourne, FL"
13361,McAlester Regional,34.8825,-95.78333333,"McAlester, OK"
13362,Malad City Airport,42.17055556,-112.2894444,"Malad City, ID"
13364,Milford Municipal/Ben and Judy Briscoe Field,38.42666667,-113.0133333,"Milford, UT"
13367,Quad City International,41.44833333,-90.5075,"Moline, IL"
13368,Malta Airport,48.36694444,-107.9194444,"Malta, MT"
13369,Marshall Don Hunter Sr.,61.86416667,-162.0261111,"Marshall, AK"
13375,Frank Wiley Field,46.42805556,-105.8861111,"Miles City, MT"
13376,Millinocket Municipal,45.64777778,-68.68555556,"Millinocket, ME"
13377,Monroe Regional,32.51083333,-92.03777778,"Monroe, LA"
13381,Manley Hot Springs Airport,64.98805556,-150.6475,"Manley Hot Springs, AK"
13388,Mammoth Lakes Airport,37.63111111,-118.8513889,"Mammoth Lakes, CA"
13389,McMinn County,35.39916667,-84.56166667,"Athens, TN"
13392,Southwest Minnesota Regional-Marshall/Ryan Field,44.45166667,-95.82444444,"Marshall, MN"
13394,Minute Man Air Field,42.46055556,-71.51777778,"Stow, MA"
13397,McEntire Jngb,33.92083333,-80.80111111,"Columbia, SC"
13398,Morristown Municipal,40.79944444,-74.415,"Morristown, NJ"
13401,Fosston Municipal,47.59277778,-95.77361111,"Fosston, MN"
13402,Moose Lake Carlton County,46.41861111,-92.80472222,"Moose Lake, MN"
13403,Ortonville Municipal-Martinson Field,45.30555556,-96.42444444,"Ortonville, MN"
13409,Menominee-Marinette Twin County,45.12666667,-87.63861111,"Marinette, MI"
13410,Marion Municipal,40.61638889,-83.06333333,"Marion, OH"
13415,Minto Al Wright,65.14805556,-149.3686111,"Minto, AK"
13418,Manassas Regional/Harry P. Davis Field,38.72111111,-77.515,"Manassas, VA"
13419,Midwest National Air Center,39.3325,-94.30972222,"Mosby, MO"
13420,Washington Regional,38.5875,-90.99388889,"Washington, MO"
13422,Mobile Regional,30.69138889,-88.24277778,"Mobile, AL"
13424,Modesto City-County-Harry Sham Field,37.62583333,-120.9544444,"Modesto, CA"
13429,Mount Pleasant Municipal,43.62166667,-84.73722222,"Mount Pleasant, MI"
13431,Moore-Murrell,36.17944444,-83.37555556,"Morristown, TN"
13432,Moses Point Airport,64.69805556,-162.0572222,"Moses Point, AK"
13433,Minot International,48.25777778,-101.2780556,"Minot, ND"
13434,Mountain Village Airport,62.09472222,-163.6827778,"Mountain Village, AK"
13439,Watson Island International,25.77833333,-80.17027778,"Miami, FL"
13440,Montpelier Airport,42.33611111,-111.2888889,"Montpelier, ID"
13441,Petit Jean Park,35.13888889,-92.90916667,"Morrilton, AR"
13446,Pocono Mountains Municipal,41.13777778,-75.38,"Mt. Pocono, PA"
13447,McPherson Airport,38.3525,-97.69138889,"McPherson, KS"
13450,Edward F Knapp State,44.20361111,-72.56222222,"Montpelier/Barre, VT"
13452,Macomb Municipal,40.52,-90.6525,"Macomb, IL"
13453,Indianapolis Regional,39.84305556,-85.89777778,"Indianapolis, IN"
13459,Sawyer International,46.35361111,-87.39527778,"Marquette, MI"
13461,Smyrna Airport,36.00888889,-86.52,"Smyrna, TN"
13463,Eastern WV Regional/Shepherd Field,39.40194444,-77.98472222,"Martinsburg, WV"
13464,Maury County,35.55444444,-87.17916667,"Columbia, TN"
13467,Merrill Field,61.21361111,-149.8447222,"Anchorage, AK"
13469,Marco Island Airport,25.995,-81.6725,"Marco Island, FL"
13470,Morganton Lenoir,35.83333333,-81.61666667,"Morganton, NC"
13476,Monterey Regional,36.58694444,-121.8430556,"Monterey, CA"
13478,Grenada Municipal,33.8325,-89.79805556,"Grenada, MS"
13480,Falcon Field,33.46083333,-111.7283333,"Mesa, AZ"
13484,Northwest Alabama Regional,34.74527778,-87.61027778,"Muscle Shoals, AL"
13485,Dane County Regional-Truax Field,43.14,-89.3375,"Madison, WI"
13486,Missoula International,46.91638889,-114.0905556,"Missoula, MT"
13487,Minneapolis-St Paul International,44.88194444,-93.22166667,"Minneapolis, MN"
13490,Massena International-Richards Field,44.93638889,-74.845,"Massena, NY"
13493,Sullivan County International,41.70166667,-74.795,"Monticello, NY"
13495,Louis Armstrong New Orleans International,29.99333333,-90.25916667,"New Orleans, LA"
13497,Colstrip Airport,45.85277778,-106.7091667,"Colstrip, MT"
13498,Selfridge Angb,42.61388889,-82.83694444,"Mt. Clemens, MI"
13501,The Florida Keys Marathon International,24.72611111,-81.05138889,"Marathon, FL"
13502,Montrose Regional,38.50972222,-107.8941667,"Montrose/Delta, CO"
13504,Metlakatala,55.13333333,-131.5833333,"Metlakatla, AK"
13505,Martin State,39.32555556,-76.41388889,"Baltimore, MD"
13506,Coles County Memorial,39.47777778,-88.28,"Mattoon/Charleston, IL"
13507,Sky Portal,41.07666667,-71.92055556,"Montauk Point, NY"
13512,Manitowoc County,44.12888889,-87.68055556,"Manitowoc, WI"
13513,Metro Field,64.80666667,-147.7625,"Fairbanks, AK"
13520,Waimea-Kohala,20.00138889,-155.6680556,"Kamuela, HI"
13523,Spence,31.13777778,-83.70416667,"Moultrie, GA"
13525,Mountain Home AFB,43.04361111,-115.8725,"Mountain Home, ID"
13527,Muscatine Municipal,41.36777778,-91.14833333,"Muscatine, IA"
13535,Morrisville Stowe State,44.53444444,-72.61388889,"Morrisville, VT"
13536,Kayenta Airport,36.71638889,-110.2283333,"Kayenta, AZ"
13537,Mount Vernon Airport,38.32333333,-88.85861111,"Mount Vernon, IL"
13540,Skagit Regional,48.47055556,-122.4216667,"Burlington/Mount Vernon, WA"
13541,Martha's Vineyard Airport,41.39333333,-70.61388889,"Martha's Vineyard, MA"
13543,Williamson County Regional,37.755,-89.01111111,"Marion/Herrin, IL"
13544,Lawrence J Timmerman,43.11027778,-88.03444444,"Milwaukee, WI"
13546,Grant County International,47.20861111,-119.3191667,"Moses Lake, WA"
13547,Mineral Wells Airport,32.78166667,-98.06027778,"Mineral Wells, TX"
13548,Windom Municipal,43.91333333,-95.10944444,"Windom, MN"
13549,Middletown Regional/Hook Field,39.53194444,-84.39638889,"Middletown, OH"
13553,Monticello Airport,37.93722222,-109.3463889,"Monticello, UT"
13554,Laurinburg-Maxton,34.79222222,-79.36583333,"Maxton, NC"
13555,Maxwell AFB,32.38305556,-86.36583333,"Montgomery, AL"
13556,Marlboro Airport,42.34305556,-71.50888889,"Marlboro, MA"
13564,McCarthy Airport,61.43777778,-142.9025,"McCarthy, AK"
13570,Montgomery Gibbs Executive,32.81583333,-117.1394444,"San Diego, CA"
13572,Cliff Dwellers,36.73444444,-111.7527778,"Marble Canyon, AZ"
13574,May Creek Airport,61.33611111,-142.6858333,"May Creek, AK"
13575,McCall Municipal,44.88861111,-116.1016667,"McCall, ID"
13577,Myrtle Beach International,33.67972222,-78.92833333,"Myrtle Beach, SC"
13579,Mekoryuk Airport,60.3725,-166.2702778,"Mekoryuk, AK"
13580,Yuba County,39.09777778,-121.5697222,"Marysville, CA"
13587,Pinal Airpark,32.50972222,-111.3252778,"Marana, AZ"
13595,Marion Municipal,40.49,-85.67972222,"Marion, IN"
13596,Pottstown Municipal,40.26027778,-75.67083333,"Pottstown, PA"
13597,Trenton-Robbinsville,40.21388889,-74.60166667,"Robbinsville, NJ"
13599,Harriman-and-West,42.69638889,-73.17055556,"North Adams, MA"
13612,New Orleans NAS JRB,29.82722222,-90.02666667,"New Orleans, LA"
13619,Gastonia Municipal,35.20277778,-81.15,"Gastonia, NC"
13620,Johnston Regional,35.54083333,-78.39027778,"Smithfield, NC"
13621,Shelby-Cleveland County Regional,35.25583333,-81.60083333,"Shelby, NC"
13622,Currituck County Regional,36.4,-76.01555556,"Currituck, NC"
13623,Duplin County,35,-77.98166667,"Kenansville, NC"
13629,Chenega Bay,60.07861111,-147.9947222,"Chenega, AK"
13630,Quonset State Air Reserve National Guard Helipad,41.59944444,-71.41666667,"North Kingstown, RI"
